City_ID,City,Lat,Lng,Max Temp,Humidity,Cloudiness,Wind Speed,Country,Date
0,Soyo,-6.1349,12.3689,297.89,81,93,2.14,AO,1635364128
1,Ribeira Grande,38.5167,-28.7,293.37,73,20,7.2,PT,1635364128
2,Provideniya,64.3833,-173.3,266.21,63,75,5.0,RU,1635364128
3,Hvolsvollur,63.7533,-20.2243,276.38,77,99,2.54,IS,1635364129
4,Vila Franca do Campo,37.7167,-25.4333,292.38,90,100,4.05,PT,1635364129
5,Kapaa,22.0752,-159.319,300.14,81,1,0.89,US,1635364130
6,Dikson,73.5069,80.5464,259.39,91,38,1.36,RU,1635364111
7,Saskylakh,71.9167,114.0833,250.19,100,100,1.09,RU,1635363992
8,Busselton,-33.65,115.3333,280.4,78,66,3.78,AU,1635363994
9,Hithadhoo,-0.6,73.0833,300.93,74,10,6.61,MV,1635364130
10,Nizwá,22.9333,57.5333,296.5,75,63,2.68,OM,1635364131
11,Paracuru,-3.41,-39.0306,303.16,73,7,6.21,BR,1635364131
12,Lebu,-37.6167,-73.65,287.26,76,77,6.38,CL,1635363959
13,Rikitea,-23.1203,-134.9692,296.34,78,21,3.1,PF,1635363988
14,Severo-Kuril'sk,50.6789,156.125,279.18,92,100,2.25,RU,1635364132
15,Winton,37.3894,-120.6133,293.99,60,75,0.0,US,1635364132
16,Buraidah,26.326,43.975,297.4,16,100,1.73,SA,1635364132
17,Suntar,62.1444,117.6319,272.63,67,27,5.76,RU,1635364133
18,Sampit,-2.5333,112.95,296.94,97,99,0.35,ID,1635364133
19,Bredasdorp,-34.5322,20.0403,292.19,93,100,3.19,ZA,1635364079
20,Punta Arenas,-53.15,-70.9167,286.16,54,0,17.49,CL,1635364091
21,Chui,-33.6971,-53.4616,298.41,57,0,3.1,UY,1635364134
22,New Norfolk,-42.7826,147.0587,286.99,56,3,1.07,AU,1635363979
23,Hermanus,-34.4187,19.2345,292.48,90,99,2.7,ZA,1635364134
24,East London,-33.0153,27.9116,292.83,82,100,10.64,ZA,1635364100
25,Morro Bay,35.3658,-120.8499,299.46,56,0,2.68,US,1635364108
26,Avarua,-21.2078,-159.775,298.18,73,75,3.09,CK,1635364093
27,Kavieng,-2.5744,150.7967,300.7,79,23,5.09,PG,1635364135
28,Makakilo City,21.3469,-158.0858,300.16,69,1,4.12,US,1635364135
29,Pevek,69.7008,170.3133,260.68,93,100,5.41,RU,1635364136
30,Isangel,-19.55,169.2667,297.21,94,100,1.03,VU,1635364136
31,Narsaq,60.9167,-46.05,271.04,68,18,2.69,GL,1635363979
32,Puerto Asís,0.5133,-76.5007,302.46,69,99,1.2,CO,1635364137
33,Ushuaia,-54.8,-68.3,284.94,62,40,11.32,AR,1635364107
34,Aksarayskiy,46.7924,48.0119,274.12,79,9,3.59,RU,1635364137
35,Coquimbo,-29.9533,-71.3436,290.0,72,20,5.66,CL,1635364137
36,Chiungutwa,-10.8833,38.9833,296.86,76,5,2.2,TZ,1635364138
37,Bandarbeyla,9.4942,50.8122,298.8,77,5,4.27,SO,1635364137
38,George Town,5.4112,100.3354,300.87,88,40,2.24,MY,1635363924
39,Caravelas,-17.7125,-39.2481,298.52,72,11,3.91,BR,1635364138
40,Tuktoyaktuk,69.4541,-133.0374,271.15,100,90,2.06,CA,1635364103
41,Hazorasp,41.3194,61.0742,278.06,89,100,2.65,UZ,1635364139
42,Puerto Ayora,-0.7393,-90.3518,297.13,90,87,2.68,EC,1635363977
43,Tongliao,43.6125,122.2653,278.61,45,0,1.55,CN,1635364131
44,Belmopan,17.25,-88.7667,309.36,57,100,2.93,BZ,1635364140
45,Oromocto,45.8351,-66.4792,283.12,78,90,7.2,CA,1635364140
46,Humaitá,-7.5061,-63.0208,299.84,77,97,1.0,BR,1635364127
47,Tasiilaq,65.6145,-37.6368,268.15,68,54,1.97,GL,1635364092
48,Hobart,-42.8794,147.3294,287.18,69,0,0.89,AU,1635363844
49,Cape Town,-33.9258,18.4232,293.76,69,0,0.89,ZA,1635364037
50,Salym,60.0625,71.4789,267.65,94,100,2.12,RU,1635364141
51,Mossamedes,-15.1961,12.1522,292.22,77,13,3.67,AO,1635364141
52,Peniche,39.3558,-9.3811,293.49,74,0,1.58,PT,1635364142
53,San Jose,37.3394,-121.895,296.26,68,20,0.89,US,1635363410
54,Khatanga,71.9667,102.5,257.98,94,100,5.27,RU,1635364143
55,Vardø,70.3705,31.1107,273.14,74,40,2.57,NO,1635364143
56,Hong Kong,22.2855,114.1577,298.36,86,85,1.79,HK,1635364114
57,Jamestown,42.097,-79.2353,289.31,70,1,2.24,US,1635364080
58,Castro,-24.7911,-50.0119,292.96,85,100,3.54,BR,1635363980
59,Malbork,54.0359,19.0266,287.01,81,100,6.49,PL,1635364066
60,Port Alfred,-33.5906,26.891,292.66,83,100,13.64,ZA,1635364078
61,Bandundu Province,-3.3167,17.3667,294.83,95,74,1.43,CD,1635364144
62,Andenes,69.3143,16.1194,276.14,70,0,10.29,NO,1635364145
63,Lorengau,-2.0226,147.2712,300.48,78,21,1.72,PG,1635364115
64,Port Hardy,50.6996,-127.4199,283.25,81,75,2.57,CA,1635364126
65,Mataura,-46.1927,168.8643,286.72,74,11,1.79,NZ,1635364088
66,Saint Paul Harbor,57.79,-152.4072,278.88,49,1,1.54,US,1635364111
67,Esperance,-33.8667,121.9,284.06,66,73,10.86,AU,1635364145
68,Grants Pass,42.439,-123.3284,292.79,70,1,0.45,US,1635364146
69,Vaini,-21.2,-175.2,298.24,83,75,4.12,TO,1635364007
70,Pisco,-13.7,-76.2167,294.18,64,0,8.23,PE,1635364146
71,Kutum,14.2,24.6667,297.8,17,5,4.72,SD,1635364146
72,Sesimbra,38.4445,-9.1015,293.32,63,0,2.93,PT,1635364147
73,Bengkulu,-3.8004,102.2655,297.83,85,100,1.64,ID,1635364147
74,Albany,42.6001,-73.9662,289.12,69,96,0.45,US,1635364147
75,Bonito,-21.1211,-56.4819,303.67,47,100,1.82,BR,1635364148
76,Tiksi,71.6872,128.8694,260.38,96,93,1.77,RU,1635364148
77,Iwanai,42.9744,140.5089,283.92,81,92,4.3,JP,1635364148
78,Kiryat Gat,31.61,34.7642,294.71,63,0,2.78,IL,1635363903
79,Saint-Joseph,-21.3667,55.6167,294.36,79,17,3.22,RE,1635364098
80,Petatlán,17.5167,-101.2667,302.91,70,46,2.4,MX,1635364149
81,Kahului,20.8947,-156.47,301.47,69,20,5.66,US,1635364149
82,San Patricio,28.017,-97.5169,306.2,15,0,12.64,US,1635364025
83,Pavia,45.1845,9.1615,287.35,68,0,2.19,IT,1635364150
84,Pedara,37.6169,15.0567,289.22,79,75,0.45,IT,1635364150
85,Saint-Philippe,-21.3585,55.7679,294.92,80,34,5.07,RE,1635364048
86,Barrow,71.2906,-156.7887,266.16,79,75,2.57,US,1635364017
87,La Ronge,55.1001,-105.2842,278.29,87,90,1.54,CA,1635364116
88,Srednekolymsk,67.45,153.6833,250.54,98,87,1.16,RU,1635364100
89,Jahānābād,25.2167,84.9833,292.46,63,0,2.29,IN,1635364151
90,Vestmannaeyjar,63.4427,-20.2734,279.67,70,60,5.74,IS,1635364152
91,Manokwari,-0.8667,134.0833,298.94,77,67,1.16,ID,1635364152
92,Northam,51.0333,-4.2167,288.52,84,84,10.74,GB,1635364152
93,Nikolskoye,59.7035,30.7861,281.41,91,100,3.97,RU,1635364114
94,Alekseyevka,50.6309,38.6903,276.85,58,0,3.27,RU,1635364153
95,State College,40.7934,-77.86,291.93,63,40,0.89,US,1635364153
96,Cidreira,-30.1811,-50.2056,295.95,68,0,4.21,BR,1635364154
97,Coos Bay,43.3665,-124.2179,292.21,83,75,4.63,US,1635364154
98,Fortuna,40.5982,-124.1573,294.22,72,20,0.89,US,1635364154
99,Asău,46.4333,26.4,280.79,62,16,1.71,RO,1635364155
100,Biak,-0.9131,122.8766,297.86,84,10,0.31,ID,1635364155
101,Fort Nelson,58.8053,-122.7002,272.92,93,90,0.0,CA,1635364155
102,Muroto-misakicho,33.2833,134.15,291.49,65,0,3.81,JP,1635364156
103,Katsuura,35.1333,140.3,289.37,91,100,3.73,JP,1635364156
104,Batagay-Alyta,67.8006,130.4114,256.19,90,98,1.26,RU,1635364156
105,Kaitangata,-46.2817,169.8464,286.07,79,9,1.54,NZ,1635364157
106,Simplício Mendes,-7.8539,-41.9103,307.43,24,5,3.83,BR,1635364157
107,Bluff,-46.6,168.3333,285.46,78,10,2.15,NZ,1635364157
108,Itarema,-2.9248,-39.9167,301.05,68,59,7.17,BR,1635364158
109,Kaoma,-14.7833,24.8,298.45,35,62,4.13,ZM,1635364158
110,Klaksvík,62.2266,-6.589,282.66,81,100,9.47,FO,1635364158
111,Constitución,-35.3333,-72.4167,290.7,66,17,5.69,CL,1635364159
112,Phan Thiet,10.9333,108.1,297.33,91,100,2.48,VN,1635363954
113,Saint-François,46.4154,3.9054,281.3,99,1,1.03,FR,1635364119
114,Vostok,46.4856,135.8833,274.0,96,100,1.43,RU,1635364160
115,Mar del Plata,-38.0023,-57.5575,298.16,87,0,4.92,AR,1635363950
116,Villa Carlos Paz,-31.4241,-64.4978,307.07,18,69,6.26,AR,1635364161
117,Airai,-8.9266,125.4092,289.33,81,94,0.89,TL,1635364092
118,Karla,59.3723,24.9275,283.23,84,90,7.72,EE,1635364162
119,Upernavik,72.7868,-56.1549,268.28,76,89,2.41,GL,1635364095
120,Hasaki,35.7333,140.8333,287.37,83,100,1.5,JP,1635364139
121,Qaanaaq,77.484,-69.3632,266.9,94,100,5.01,GL,1635364163
122,Codrington,-38.2667,141.9667,285.86,95,94,3.36,AU,1635364021
123,Patacamaya,-17.2333,-67.9167,289.25,22,85,3.39,BO,1635364163
124,Longyearbyen,78.2186,15.6401,268.06,63,75,4.63,SJ,1635364163
125,São Filipe,14.8961,-24.4956,299.28,77,85,4.12,CV,1635364164
126,Betioky,-23.7167,44.3833,293.45,73,15,5.61,MG,1635364164
127,Ixtapa,20.7,-105.2,302.72,80,87,3.13,MX,1635364165
128,Yatou,37.15,122.3833,284.07,65,59,2.71,CN,1635364164
129,Cabo San Lucas,22.8909,-109.9124,304.55,56,1,2.24,MX,1635364044
130,Saldanha,-33.0117,17.9442,289.18,96,100,4.04,ZA,1635364128
131,Oktyabr'skiy,54.4815,53.471,275.81,63,100,7.12,RU,1635364165
132,Carnarvon,-24.8667,113.6333,290.19,59,75,5.66,AU,1635364082
133,Ponta do Sol,32.6667,-17.1,294.5,61,7,1.42,PT,1635364075
134,Yellowknife,62.456,-114.3525,277.82,99,75,3.6,CA,1635364038
135,Bereda,43.2686,-7.5406,285.3,99,7,0.36,ES,1635364166
136,Saint-Pierre,-21.3393,55.4781,294.97,71,0,3.09,RE,1635364166
137,Thompson,55.7435,-97.8558,278.24,100,90,1.54,CA,1635363924
138,Shwebo,22.5667,95.7,295.04,90,41,2.16,MM,1635364167
139,Jackson,42.4165,-122.8345,291.99,81,32,0.75,US,1635364167
140,Haines Junction,60.7522,-137.5108,271.79,82,98,0.25,CA,1635364167
141,Dakar,14.6937,-17.4441,301.64,78,60,0.0,SN,1635364168
142,Zhigansk,66.7697,123.3711,265.98,90,100,9.73,RU,1635364076
143,Acarí,-15.4311,-74.6158,298.55,51,85,4.21,PE,1635364168
144,Butaritari,3.0707,172.7902,300.77,70,100,2.69,KI,1635364009
145,Yulara,-25.2406,130.9889,296.06,27,83,3.6,AU,1635364169
146,Sabang,5.8933,95.3214,299.62,81,100,4.28,ID,1635364169
147,Kumul,42.8,93.45,282.24,34,0,1.4,CN,1635364169
148,Faya,18.3851,42.4509,289.21,57,59,1.79,SA,1635364170
149,Shingū,33.7333,135.9833,286.09,78,0,3.16,JP,1635364170
150,Sitka,57.0531,-135.33,281.09,87,90,6.69,US,1635364139
151,Mayo,38.8876,-76.5119,295.82,60,20,5.36,US,1635364104
152,Kharsāwān,22.8,85.8333,294.63,70,39,2.24,IN,1635364171
153,San Andrés,12.5847,-81.7006,302.16,79,75,3.6,CO,1635364171
154,Kyzyl-Suu,42.3414,78.0056,278.41,51,100,3.26,KG,1635364172
155,Iqaluit,63.7506,-68.5145,274.0,80,40,1.03,CA,1635364172
156,Hofn,64.2539,-15.2082,275.16,87,0,2.06,IS,1635364173
157,San Juan,-31.5375,-68.5364,307.94,9,41,1.83,AR,1635364101
158,Touros,-5.1989,-35.4608,302.65,72,6,7.64,BR,1635364134
159,Honiara,-9.4333,159.95,299.27,85,31,2.62,SB,1635364173
160,Bethel,41.3712,-73.414,287.65,79,90,0.45,US,1635364126
161,Byron Bay,-28.65,153.6167,296.12,91,13,3.68,AU,1635364027
162,Mweka,-4.85,21.5667,293.98,99,78,0.5,CD,1635364174
163,Kabo,7.6994,18.629,298.0,76,7,0.33,CF,1635364174
164,Tuatapere,-46.1333,167.6833,286.36,82,11,1.95,NZ,1635364175
165,Frankenberg,51.0667,8.8,284.4,95,45,1.68,DE,1635364175
166,Puerto Escondido,15.85,-97.0667,303.68,71,40,4.59,MX,1635364176
167,Pangnirtung,66.1451,-65.7125,273.15,74,75,1.54,CA,1635364176
168,Pacific Grove,36.6177,-121.9166,297.38,64,1,1.34,US,1635364176
169,Freeport,40.6576,-73.5832,290.92,68,90,0.45,US,1635364042
170,Berlevåg,70.8578,29.0864,271.15,86,20,4.63,NO,1635364109
171,Antofagasta,-23.65,-70.4,290.75,61,4,3.72,CL,1635364177
172,Kangaatsiaq,68.3065,-53.4641,266.89,63,100,3.56,GL,1635364177
173,North Bend,43.4065,-124.2243,292.17,83,75,4.63,US,1635364128
174,Bridlington,54.0831,-0.1919,289.25,78,82,11.47,GB,1635364178
175,Selma,36.5708,-119.6121,293.16,64,4,0.31,US,1635364178
176,Béré,9.3202,16.1552,298.76,59,92,0.83,TD,1635364178
177,Dhangadhi,28.7079,80.5961,291.2,80,0,1.27,NP,1635364179
178,Viedma,-40.8135,-62.9967,303.6,14,0,8.74,AR,1635364179
179,Geraldton,-28.7667,114.6,284.38,87,40,2.06,AU,1635364179
180,Arrondissement de Saint-Denis,48.9167,2.3333,286.03,85,0,1.03,FR,1635364180
181,Paso de los Toros,-32.8167,-56.5167,301.33,58,0,3.62,UY,1635364180
182,Keflavik,64.0049,-22.5624,277.39,87,0,3.6,IS,1635364180
183,Solnechnyy,50.7214,136.6319,275.09,93,94,3.06,RU,1635364181
184,Dunmore East,52.1514,-6.9861,289.14,80,75,15.43,IE,1635364181
185,Walvis Bay,-22.9575,14.5053,289.31,82,100,4.63,NA,1635364163
186,Bhigvan,18.3167,74.7667,297.14,52,100,4.1,IN,1635364182
187,Sørland,67.667,12.6934,278.19,88,100,9.4,NO,1635364182
188,Itapema,-27.0903,-48.6114,299.73,80,98,2.67,BR,1635364182
189,Celestún,20.8667,-90.4,305.0,57,17,4.07,MX,1635364183
190,San Quintín,30.4833,-115.95,295.62,45,0,3.19,MX,1635364119
191,Harper,4.375,-7.7169,298.46,88,83,3.65,LR,1635364183
192,Villanueva,15.3167,-88.0,308.7,41,20,3.09,HN,1635364184
193,Taoudenni,22.6783,-3.9836,305.04,15,94,6.57,ML,1635364184
194,Kruisfontein,-34.0033,24.7314,291.42,82,100,5.01,ZA,1635364087
195,Vao,-22.6667,167.4833,295.62,85,5,6.2,NC,1635364184
196,Arraial do Cabo,-22.9661,-42.0278,298.13,88,75,3.09,BR,1635364185
197,Kloulklubed,7.0419,134.2556,298.43,70,74,4.32,PW,1635364185
198,Puro,12.4841,123.3827,299.31,85,100,3.84,PH,1635364186
199,Bambous Virieux,-20.3428,57.7575,295.49,83,20,2.57,MU,1635364186
200,Bridgetown,13.1,-59.6167,302.42,65,20,5.14,BB,1635364186
201,Makkah al Mukarramah,21.4267,39.8261,300.48,57,49,1.42,SA,1635364187
202,Goulouré,12.2306,-1.9289,304.0,31,98,3.52,BF,1635364187
203,Dingle,10.9995,122.6711,296.94,95,100,3.15,PH,1635364012
204,Kosino,58.4127,51.2782,274.97,91,100,5.3,RU,1635364187
205,Sovetskiy,61.3614,63.5842,270.85,96,100,4.11,RU,1635364188
206,Iralaya,15.0,-83.2333,302.69,64,97,3.71,HN,1635364188
207,Cap Malheureux,-19.9842,57.6142,295.63,72,5,0.89,MU,1635364189
208,Akureyri,65.6835,-18.0878,275.11,100,90,3.09,IS,1635364189
209,Ryōtsu-minato,38.0833,138.4333,288.18,73,30,4.89,JP,1635364189
210,Atuona,-9.8,-139.0333,298.66,67,15,6.91,PF,1635364029
211,Sinazongwe,-17.2614,27.4618,301.11,56,4,5.32,ZM,1635364190
212,Marsh Harbour,26.5412,-77.0636,300.46,64,6,7.0,BS,1635364180
213,Bariloche,-41.1456,-71.3082,296.73,21,0,9.77,AR,1635363930
214,Jessheim,60.1415,11.1752,283.42,92,0,2.06,NO,1635364190
215,Ōfunato,39.0717,141.7167,285.22,86,0,2.81,JP,1635364191
216,Ayagoz,47.9714,80.4392,275.26,93,95,3.81,KZ,1635364191
217,Urucará,-2.5364,-57.76,299.57,86,98,1.11,BR,1635364191
218,Shelburne,44.0787,-80.2041,288.32,62,2,2.92,CA,1635364192
219,Paamiut,61.994,-49.6678,273.07,73,49,6.6,GL,1635364192
220,Olafsvik,64.8945,-23.7142,277.64,93,100,10.7,IS,1635364130
221,Belūsovka,50.1339,82.5239,272.62,100,90,2.0,KZ,1635364193
222,Marzuq,14.4,46.4667,294.67,56,21,2.02,YE,1635364193
223,Ilulissat,69.2167,-51.1,264.16,48,75,4.63,GL,1635364193
224,Santiago del Estero,-27.7951,-64.2615,309.15,10,91,6.85,AR,1635364194
225,Nyon,46.3832,6.2396,286.14,89,0,0.51,CH,1635364194
226,Djibouti,11.5,42.5,298.83,60,6,6.57,DJ,1635364194
227,Araouane,18.9048,-3.5265,306.38,15,94,2.86,ML,1635364195
228,Tautira,-17.7333,-149.15,302.16,81,10,5.41,PF,1635364195
229,Kondoa,-4.9,35.7833,294.47,50,66,4.6,TZ,1635364195
230,Agua Dulce,18.1333,-94.1333,304.41,69,47,3.11,MX,1635364196
231,Binzhou,37.3667,118.0167,286.13,46,100,0.84,CN,1635364196
232,Samarai,-10.6167,150.6667,300.51,77,96,6.13,PG,1635363991
233,Koutiala,12.3917,-5.4642,304.97,35,40,2.91,ML,1635364196
234,Norman Wells,65.282,-126.8329,268.17,86,90,1.54,CA,1635364197
235,Quatre Cocos,-20.2078,57.7625,295.42,72,12,4.59,MU,1635364143
236,Clyde River,70.4692,-68.5914,273.28,100,75,2.57,CA,1635364039
237,Joshīmath,30.5667,79.5667,282.46,33,0,4.2,IN,1635364197
238,Portland,45.5234,-122.6762,288.2,84,90,0.89,US,1635363937
239,Lerwick,60.1545,-1.1494,284.15,86,12,5.18,GB,1635364198
240,Inhambane,-23.865,35.3833,296.14,78,40,3.13,MZ,1635364000
241,Torbay,47.6666,-52.7314,278.86,83,75,6.17,CA,1635363924
242,Papara,-3.9839,-38.7273,302.37,57,5,3.49,BR,1635364198
243,Pontianak,-0.0333,109.3333,297.14,100,90,2.06,ID,1635364199
244,Antalaha,-14.9003,50.2788,294.43,91,11,1.59,MG,1635364161
245,Hai Duong,20.9333,106.3167,298.21,76,100,2.47,VN,1635364199
246,Riyadh,24.6877,46.7219,299.23,23,46,4.37,SA,1635363943
247,Montepuez,-13.1256,38.9997,297.54,67,39,3.16,MZ,1635364200
248,Verkhnyaya Inta,65.9811,60.3094,267.71,79,100,7.47,RU,1635364200
249,Deer Lake,49.1667,-57.4316,280.07,61,75,4.12,CA,1635364201
250,Grand Gaube,-20.0064,57.6608,295.58,72,6,1.34,MU,1635364055
251,Lenger,42.183,69.8839,278.84,49,100,0.35,KZ,1635364202
252,Wajima,37.4,136.9,288.76,70,1,5.06,JP,1635364202
253,Chapais,49.7834,-74.8492,283.03,51,100,2.03,CA,1635364066
254,Esim,4.8699,-2.2405,299.03,84,27,3.27,GH,1635364137
255,Coyhaique,-45.5752,-72.0662,289.12,44,75,6.17,CL,1635363982
256,Troitskoye,52.9821,84.6757,271.69,55,45,1.6,RU,1635364203
257,Aldan,58.6031,125.3894,271.4,82,100,5.06,RU,1635364190
258,Chokurdakh,70.6333,147.9167,257.67,90,100,2.5,RU,1635364104
259,Ponta Delgada,37.7333,-25.6667,292.55,88,75,8.75,PT,1635363990
260,Port Elizabeth,-33.918,25.5701,292.65,94,90,5.14,ZA,1635364205
261,Amga,60.8953,131.9608,267.24,94,100,1.96,RU,1635364205
262,Gazli,40.1333,63.45,281.07,67,99,5.46,UZ,1635364206
263,Yaan,7.3833,8.5667,298.3,82,100,2.1,NG,1635364207
264,Safi,32.2994,-9.2372,292.68,84,0,4.46,MA,1635364207
265,Kieta,-6.2167,155.6333,299.62,84,65,1.86,PG,1635364176
266,Faanui,-16.4833,-151.75,299.77,76,59,3.8,PF,1635364160
267,Vaitape,-16.5167,-151.75,299.76,76,56,3.78,PF,1635364208
268,Port Said,31.2565,32.2841,297.19,68,9,6.93,EG,1635364209
269,Muravlenko,63.7898,74.523,260.41,94,19,3.29,RU,1635364209
270,Camaná,-16.6228,-72.7111,293.19,70,6,3.03,PE,1635364210
271,Korla,41.7597,86.1469,281.78,43,12,0.95,CN,1635364210
272,Mórrope,-6.5417,-80.0111,295.21,63,88,7.96,PE,1635364210
273,Ewo,-0.8725,14.8206,294.49,96,89,1.18,CG,1635364211
274,Talnakh,69.4865,88.3972,253.49,99,94,4.32,RU,1635364211
275,Mahibadhoo,3.7833,72.9667,300.68,76,89,2.86,MV,1635364211
276,Cirò Marina,39.3732,17.126,288.16,73,49,5.69,IT,1635364212
277,Wanning,18.8003,110.3967,297.76,92,100,2.91,CN,1635364212
278,Port-Cartier,50.0334,-66.8654,280.27,67,0,1.85,CA,1635364213
279,Maracaju,-21.6144,-55.1683,303.79,46,97,3.21,BR,1635364186
280,Sterling,39.0062,-77.4286,295.29,60,20,0.89,US,1635363968
281,Bonavista,48.6499,-53.1147,279.33,65,100,6.43,CA,1635364213
282,Kanniyākumāri,8.0833,77.5667,299.35,79,91,2.38,IN,1635364214
283,Gijón,43.5357,-5.6615,289.4,76,6,1.62,ES,1635364214
284,Matamoros,25.5333,-103.25,300.33,23,0,4.6,MX,1635364215
285,Murud,18.3258,72.965,297.2,62,1,2.65,IN,1635364215
286,Kerman,30.2832,57.0788,285.07,24,20,3.09,IR,1635364215
287,Stornoway,58.2093,-6.3865,284.78,82,75,3.6,GB,1635364216
288,Aquidauana,-20.4711,-55.7872,304.32,48,99,2.42,BR,1635364216
289,Oddur,4.1213,43.8894,297.92,70,67,4.38,SO,1635364217
290,Richards Bay,-28.783,32.0377,292.26,82,100,3.36,ZA,1635364217
291,Ilebo,-4.3167,20.5833,295.4,97,100,0.25,CD,1635364217
292,Rawson,-43.3002,-65.1023,301.41,25,0,8.29,AR,1635364218
293,Molėtai,55.2333,25.4167,284.31,88,100,8.77,LT,1635364218
294,Esna,25.2934,32.554,299.16,22,0,2.08,EG,1635364219
295,Tunga,11.2456,124.7517,297.46,95,99,1.83,PH,1635364219
296,Namatanai,-3.6667,152.4333,299.8,79,51,2.4,PG,1635364219
297,Baoding,38.8511,115.4903,285.3,50,100,0.69,CN,1635364220
298,Tougue,11.4667,-11.6,294.86,86,41,0.82,GN,1635364220
299,Ol'ga,43.7444,135.2892,278.53,85,91,3.98,RU,1635364220
300,Paphos,34.7667,32.4167,293.1,60,0,2.06,CY,1635364179
301,Pozhva,59.0912,56.0847,274.33,90,100,5.21,RU,1635364221
302,Champerico,14.3,-91.9167,304.78,75,91,3.06,GT,1635364221
303,Port Lincoln,-34.7333,135.8667,287.47,88,65,6.17,AU,1635364222
304,Neepawa,50.2289,-99.4664,283.37,53,100,3.62,CA,1635364222
305,Mount Isa,-20.7333,139.5,299.02,69,40,3.09,AU,1635364134
306,Guéret,46.1667,1.8667,283.5,74,0,1.47,FR,1635364222
307,Saint George,37.1041,-113.5841,293.41,37,1,0.45,US,1635363941
308,Linhares,-19.3911,-40.0722,298.51,71,58,3.66,BR,1635364223
309,Aklavik,68.2191,-135.0107,270.61,90,97,1.71,CA,1635364223
310,Agüimes,27.9054,-15.4461,293.52,62,40,6.17,ES,1635364224
311,Eydhafushi,5.1033,73.0708,300.43,72,100,1.74,MV,1635364224
312,Carnduff,49.1667,-101.8009,283.92,42,96,5.26,CA,1635364224
313,Calama,-22.4667,-68.9333,296.42,9,0,9.77,CL,1635364225
314,Chumikan,54.7183,135.315,272.7,88,10,4.56,RU,1635364225
315,Yelovo,57.0538,54.9207,275.05,83,100,6.41,RU,1635364225
316,Manitouwadge,49.1215,-85.8403,281.55,67,87,3.31,CA,1635364225
317,Comodoro Rivadavia,-45.8667,-67.5,299.07,21,0,11.32,AR,1635364214
318,Flinders,-34.5833,150.8552,288.82,90,99,0.45,AU,1635364088
319,Seminole,28.7086,-81.2081,302.44,37,1,0.45,US,1635364226
320,Ormara,25.2088,64.6357,298.61,65,0,3.3,PK,1635364226
321,Øksfjord,70.2396,22.3479,272.66,90,86,6.76,NO,1635364227
322,Hawalli,29.2833,47.9972,301.43,47,0,1.34,KW,1635364227
323,Mapiripán,2.8892,-72.1256,296.64,92,100,2.39,CO,1635364121
324,Yei,4.095,30.6779,293.42,84,16,0.65,SS,1635364228
325,Kodīnar,20.7903,70.7031,298.92,52,8,2.48,IN,1635364228
326,Darhan,49.4867,105.9228,276.41,51,67,0.53,MN,1635364229
327,Nikolayevsk-on-Amur,53.1406,140.73,275.9,99,100,1.86,RU,1635364229
328,Labuhan,-6.8844,112.2051,299.37,85,87,2.74,ID,1635364229
329,Tarakan,3.3,117.6333,298.87,94,75,1.03,ID,1635364230
330,São Félix do Xingu,-6.6447,-51.995,301.67,65,100,1.2,BR,1635364230
331,Cururupu,-1.8283,-44.8683,301.72,67,95,2.57,BR,1635364230
332,Tynda,55.1667,124.7167,271.12,73,83,1.26,RU,1635364231
333,Nabire,-3.3667,135.4833,297.51,91,99,1.17,ID,1635364231
334,Martaban,16.5314,97.6111,297.41,90,100,1.54,MM,1635364232
335,Kavaratti,10.5669,72.642,300.61,76,100,3.83,IN,1635364232
336,Paternion,46.7142,13.6361,282.29,88,5,1.23,AT,1635364232
337,Todos Santos,23.45,-110.2167,304.27,74,0,1.3,MX,1635364233
338,Lingao,19.9103,109.6859,297.43,91,100,5.19,CN,1635364137
339,Sikasso,10.9167,-7.0,301.33,54,100,1.85,ML,1635364233
340,Nhulunbuy,-12.2333,136.7667,297.49,88,40,0.0,AU,1635364234
341,Praia,14.9215,-23.5087,300.45,74,40,8.75,CV,1635364185
342,Lagoa,39.05,-27.9833,292.83,65,91,9.24,PT,1635364130
343,Oskaloosa,41.2964,-92.6444,290.14,51,90,7.72,US,1635364234
344,Zarand,30.8127,56.564,285.24,30,32,1.16,IR,1635364235
345,Belmonte,-15.8631,-38.8828,300.43,74,9,4.33,BR,1635364235
346,Rock Island,41.45,-90.5168,288.36,62,90,7.2,US,1635364218
347,Port Blair,11.6667,92.75,300.45,82,100,3.89,IN,1635364107
348,Cherskiy,68.75,161.3,245.09,98,7,2.52,RU,1635364235
349,Kayerkan,69.3497,87.7602,252.5,99,100,2.06,RU,1635364236
350,Berbera,10.4396,45.0143,301.04,53,0,2.53,SO,1635364236
351,Meulaboh,4.1363,96.1285,296.76,91,100,1.76,ID,1635364237
352,Sept-Îles,50.2001,-66.3821,280.44,77,1,1.79,CA,1635364082
353,São José da Coroa Grande,-8.8978,-35.1478,298.79,77,36,4.29,BR,1635364237
354,Necochea,-38.5473,-58.7368,299.76,54,0,3.32,AR,1635363964
355,Bone,51.9669,12.1396,285.52,84,98,3.08,DE,1635364237
356,Dourbali,11.8091,15.8632,304.19,16,89,3.54,TD,1635364238
357,Lüderitz,-26.6481,15.1594,290.04,74,100,2.66,NA,1635364150
358,Zhob,31.3411,69.4481,287.66,25,0,1.42,PK,1635364238
359,Muros,42.7762,-9.0603,290.28,92,5,1.85,ES,1635364154
360,Payson,40.0444,-111.7321,286.86,52,90,2.57,US,1635364239
361,Clearwater,27.9659,-82.8001,302.23,64,1,1.34,US,1635364198
362,Margate,51.3813,1.3862,287.76,82,91,1.79,GB,1635364112
363,Āreka,7.0667,37.7,290.63,76,72,1.5,ET,1635364240
364,Mandera,3.9366,41.867,302.61,50,50,4.49,KE,1635364240
365,Avera,33.194,-82.5271,295.53,27,6,0.47,US,1635364240
366,‘Ewa Beach,21.3156,-158.0072,300.94,68,40,2.57,US,1635364241
367,Borogontsy,62.6683,131.1683,265.16,96,100,2.12,RU,1635364241
368,Shetpe,44.1667,52.1167,277.3,54,0,3.07,KZ,1635364242
369,Purbalingga,-7.3881,109.3639,297.78,96,100,0.68,ID,1635364242
370,Hualmay,-11.0964,-77.6139,293.21,73,22,5.67,PE,1635364242
371,Savannah Bight,16.45,-85.85,306.18,73,96,7.88,HN,1635364243
372,Priboj,44.6028,18.9314,280.06,85,3,1.2,BA,1635364243
373,Suluova,40.8313,35.6479,282.07,81,0,3.6,TR,1635364243
374,Thunder Bay,48.4001,-89.3168,284.98,71,75,6.17,CA,1635364244
375,Nuevo Progreso,23.1667,-97.95,309.56,34,11,0.89,MX,1635364244
376,Pahrump,36.2083,-115.9839,295.4,33,0,0.45,US,1635364244
377,Yuzawa,39.1667,140.5,284.91,92,100,1.41,JP,1635364245
378,Tūkrah,32.5341,20.5791,294.96,76,12,2.85,LY,1635364125
379,Arrondissement de Langres,47.8333,5.3333,279.08,82,8,1.31,FR,1635364245
380,Marawi,7.9986,124.2928,291.29,92,100,1.53,PH,1635364245
381,Chunskiy,56.0815,99.6342,270.1,68,17,1.77,RU,1635364246
382,Ürümqi,43.801,87.6005,278.68,49,0,1.0,CN,1635364205
383,Guerrero Negro,27.9769,-114.0611,299.87,26,0,2.18,MX,1635364246
384,Zheleznodorozhnyy,55.7503,38.0042,279.46,77,100,4.62,RU,1635364110
385,Buala,-8.145,159.5921,300.28,81,50,3.03,SB,1635364247
386,Ahipara,-35.1667,173.1667,290.05,78,100,2.18,NZ,1635364154
387,Mrkonjić Grad,44.4158,17.0861,274.24,95,6,0.98,BA,1635364247
388,Ukiah,39.1502,-123.2078,293.36,83,40,1.54,US,1635364247
389,Platteville,42.7342,-90.4785,288.03,54,1,7.2,US,1635364248
390,Huarmey,-10.0681,-78.1522,294.12,72,9,5.71,PE,1635364248
391,Atasū,48.6814,71.6433,272.26,52,0,3.39,KZ,1635364248
392,Imeni Babushkina,59.7573,43.1285,276.32,98,100,3.86,RU,1635364249
393,Souillac,-20.5167,57.5167,295.57,83,20,2.57,MU,1635364086
394,Cassilândia,-19.1133,-51.7342,298.93,76,100,1.99,BR,1635364249
395,Forsytheganj,52.6333,29.7333,279.54,85,88,4.17,BY,1635364250
396,Yerbogachën,61.2767,108.0108,268.13,69,100,7.4,RU,1635364250
397,Obigarm,38.7173,69.7088,281.51,47,98,0.19,TJ,1635364250
398,Otjiwarongo,-20.4637,16.6477,291.92,75,99,7.36,NA,1635364251
399,Kurdzhinovo,43.9884,40.9552,277.45,69,0,2.51,RU,1635364251
400,Pirovskoye,57.6267,92.2658,270.77,69,95,3.64,RU,1635364251
401,Homer,59.6425,-151.5483,275.82,76,75,4.12,US,1635364252
402,Kiama,-34.6833,150.8667,288.4,93,99,1.25,AU,1635364098
403,San Miguelito,9.0333,-79.5,302.96,78,75,2.24,PA,1635364252
404,Nizhneangarsk,55.7833,109.55,271.5,81,78,1.77,RU,1635364253
405,Indianola,41.3581,-93.5574,285.42,90,100,7.29,US,1635364253
406,Hervey Bay,-25.2986,152.8535,296.5,82,53,4.82,AU,1635364254
407,La Paz,-16.5,-68.15,291.14,29,40,4.63,BO,1635363903
408,Tabou,4.423,-7.3528,298.7,86,91,3.17,CI,1635364254
409,Nyuksenitsa,60.4128,44.2397,274.41,98,100,3.73,RU,1635364255
410,Tulun,54.5611,100.5792,274.17,53,100,2.59,RU,1635364255
411,Pakhtakoron,40.1571,68.7466,285.88,43,100,2.56,TJ,1635364255
412,Umluj,25.0213,37.2685,299.8,62,0,3.0,SA,1635364256
413,San Cristobal,7.7669,-72.225,299.25,69,100,2.14,VE,1635364040
414,Camacupa,-12.0167,17.4833,291.25,86,100,2.24,AO,1635364256
415,Iranshahr,27.2025,60.6848,299.34,41,20,3.09,IR,1635364257
416,North Myrtle Beach,33.816,-78.68,294.96,52,1,0.89,US,1635364257
417,Linxia Chengguanzhen,35.6003,103.2064,280.14,68,95,0.5,CN,1635364257
418,Turukhansk,65.8167,87.9833,262.75,92,100,5.54,RU,1635364258
419,Salalah,17.0151,54.0924,298.2,65,0,1.03,OM,1635364051
420,Padang,-0.9492,100.3543,297.7,77,82,1.57,ID,1635364258
421,Maniitsoq,65.4167,-52.9,272.34,51,95,2.91,GL,1635364191
422,Hilo,19.7297,-155.09,299.15,71,20,2.57,US,1635364259
423,Atambua,-9.1061,124.8925,297.21,84,67,1.42,ID,1635364259
424,Smithers,54.7804,-127.1743,281.33,66,75,1.03,CA,1635364259
425,Laas,46.6166,10.7002,282.85,60,2,0.85,IT,1635363980
426,Vanimo,-2.6741,141.3028,298.74,88,97,1.92,PG,1635364260
427,Inta,66.0317,60.1659,267.85,80,100,7.17,RU,1635364260
428,Hamilton,39.1834,-84.5333,288.2,66,1,0.45,US,1635364054
429,Kilrush,52.6397,-9.4833,287.53,96,100,3.81,IE,1635364260
430,Qaqortoq,60.7167,-46.0333,271.93,73,8,2.11,GL,1635364261
431,Henties Bay,-22.116,14.2845,289.18,81,94,2.36,NA,1635364196
432,Sawtell,-30.3833,153.1,293.33,96,24,1.54,AU,1635364262
433,West Bay,19.3667,-81.4167,304.86,70,20,2.24,KY,1635364263
434,Qasigiannguit,68.8193,-51.1922,261.58,74,100,1.58,GL,1635364263
435,Horsham,51.064,-0.3272,288.51,72,40,4.12,GB,1635364263
436,Lata,40.1629,-8.3327,287.63,62,0,0.94,PT,1635364264
437,Berdigestyakh,62.0989,126.6992,268.25,95,100,3.84,RU,1635364264
438,Yar-Sale,66.8333,70.8333,262.24,91,38,3.02,RU,1635364265
439,Bushehr,28.9684,50.8385,298.2,47,0,0.0,IR,1635364265
440,Kalemie,-5.9475,29.1947,297.51,66,53,0.6,CD,1635364265
441,Yuzhno-Sukhokumsk,44.6581,45.6436,279.09,77,0,4.02,RU,1635364266
442,Siavonga,-16.5382,28.7088,300.55,53,4,2.67,ZM,1635364266
443,Klyuchi,52.2667,79.1667,271.43,48,100,1.94,RU,1635364267
444,Kalulushi,-12.8378,28.0919,295.96,49,37,4.03,ZM,1635364267
445,Bulgan,48.8125,103.5347,276.22,36,11,1.34,MN,1635364267
446,Fernley,39.608,-119.2518,292.19,51,0,2.02,US,1635364268
447,Dombås,62.0696,9.1235,274.83,99,95,1.75,NO,1635364268
448,Cruz Alta,-28.6386,-53.6064,300.25,52,0,3.0,BR,1635364269
449,Nouadhibou,20.931,-17.0347,293.43,86,28,8.17,MR,1635364269
450,Khani,41.9563,42.9566,277.91,56,0,1.9,GE,1635364269
451,Shashi,30.3072,112.2447,288.35,74,59,2.73,CN,1635364270
452,Ilām,26.9167,87.9167,287.87,87,17,2.19,NP,1635364270
453,Leshukonskoye,64.8989,45.7622,270.62,96,100,3.18,RU,1635364270
454,Camacha,33.0833,-16.3333,292.57,73,20,3.09,PT,1635364271
455,Beringovskiy,63.05,179.3167,259.24,86,92,7.34,RU,1635364075
456,Okato,-39.2,173.8833,288.38,98,100,2.54,NZ,1635364271
457,Lavrentiya,65.5833,-171.0,263.07,73,59,3.51,RU,1635364272
458,Yārāda,17.65,83.2667,302.33,79,40,1.03,IN,1635364272
459,Bilma,18.6853,12.9164,302.23,14,1,2.68,NE,1635364272
460,Ardakān,32.31,54.0175,288.36,36,0,3.31,IR,1635364273
461,Khasan,42.4308,130.6434,282.77,49,0,9.06,RU,1635364273
462,Ulaanbaatar,47.9077,106.8832,266.22,73,0,1.0,MN,1635364274
463,Udachny,66.4167,112.4,267.05,83,100,9.25,RU,1635364274
464,Sakakah,29.9697,40.2064,297.91,27,34,3.41,SA,1635364131
465,Gizo Government Station,-8.103,156.8419,301.2,77,26,3.55,SB,1635364274
466,Alyangula,-13.8483,136.4192,297.08,100,40,0.0,AU,1635364275
467,Saint-Paul,-21.0096,55.2707,295.21,77,46,1.05,RE,1635364275
468,Misratah,32.3754,15.0925,295.67,72,0,7.06,LY,1635364275
469,Husavik,66.0449,-17.3389,275.1,97,100,5.94,IS,1635364276
470,Malakal,9.5334,31.6605,297.54,74,91,1.61,SS,1635364276
471,Tocache,-8.1842,-76.5125,303.14,57,36,1.81,PE,1635364277
472,Yar,58.249,52.1026,274.47,96,100,5.63,RU,1635364277
473,Emerald,-23.5333,148.1667,295.36,71,2,4.12,AU,1635364277
474,Rivers,50.0308,-100.2403,282.68,46,100,3.29,CA,1635364278
475,São Geraldo do Araguaia,-6.4006,-48.555,307.46,37,76,1.62,BR,1635364278
476,Naze,28.3667,129.4833,292.36,63,0,5.65,JP,1635364279
477,Nadym,65.5333,72.5167,262.4,91,34,2.29,RU,1635364184
478,São João da Barra,-21.6403,-41.0511,300.2,84,53,6.17,BR,1635364179
479,Agadez,19.75,10.25,301.68,12,4,4.13,NE,1635364279
480,Ulladulla,-35.35,150.4667,288.2,55,100,1.67,AU,1635364280
481,Mergen,49.1833,125.2167,274.98,79,5,1.09,CN,1635364280
482,Rosport,49.7978,6.5042,284.01,90,31,0.96,LU,1635364280
483,Bantou,26.2151,117.4893,290.67,95,64,1.21,CN,1635364281
484,Sambava,-14.2667,50.1667,296.18,85,21,2.19,MG,1635364281
485,Luang Prabang,19.8856,102.1347,292.72,91,100,0.76,LA,1635364282
486,Preobrazheniye,42.9019,133.9064,279.27,81,16,3.99,RU,1635364282
487,Ust-Kuyga,70.0167,135.6,256.81,99,95,1.71,RU,1635364282
488,College,64.8569,-147.8028,270.49,91,75,0.0,US,1635364283
489,Santiago,-33.4569,-70.6483,300.84,35,0,4.12,CL,1635363963
490,Piła,53.1515,16.7378,285.59,80,100,4.31,PL,1635364283
491,Tateyama,34.9833,139.8667,289.32,85,100,5.14,JP,1635364151
492,Jacqueville,5.2052,-4.4146,300.1,83,25,5.24,CI,1635364284
493,Phang Nga,8.4509,98.5298,299.17,94,100,1.87,TH,1635364284
494,Adré,13.4667,22.2,300.75,25,8,2.21,TD,1635364284
495,Kisangani,0.5167,25.2,295.01,97,98,0.67,CD,1635364169
496,Petropavlovsk-Kamchatskiy,53.0452,158.6483,270.48,100,0,1.0,RU,1635364285
497,Liverpool,53.4106,-2.9779,290.2,77,20,4.47,GB,1635364285
498,Tagusao,9.1924,117.8141,299.43,85,95,1.84,PH,1635364286
499,Sakaraha,-22.9,44.5333,292.78,81,50,6.19,MG,1635364286
500,Aksarka,66.5606,67.7975,262.19,93,100,2.57,RU,1635364286
501,Belyy Yar,53.6039,91.3903,266.09,73,0,2.0,RU,1635364287
502,Talcahuano,-36.7167,-73.1167,291.97,63,0,8.23,CL,1635364287
503,Koltubanovskiy,52.9407,52.0269,277.07,53,99,5.92,RU,1635364287
504,Shimoda,34.6667,138.95,287.1,72,100,0.95,JP,1635364288
505,Miraflores,19.2167,-98.8083,298.72,46,28,2.12,MX,1635364288
506,Jishou,28.3167,109.7167,287.74,77,96,1.39,CN,1635364289
507,Qinhuangdao,39.9317,119.5883,285.17,39,50,1.92,CN,1635364289
508,Chalmette,29.9427,-89.9634,302.59,74,90,2.24,US,1635364289
509,Deputatsky,69.3,139.9,256.2,97,100,1.02,RU,1635364290
510,Prince Albert,53.2001,-105.7677,277.12,93,90,1.03,CA,1635364290
511,Cockburn Town,21.4612,-71.1419,301.65,69,99,3.48,TC,1635364102
512,Coahuayana Viejo,18.7333,-103.6833,304.44,59,100,3.21,MX,1635364290
513,Kirovskiy,45.0917,133.5136,278.02,90,100,3.03,RU,1635364291
514,Uinskoye,56.8817,56.5813,274.31,85,100,5.94,RU,1635364291
515,Progreso,21.2833,-89.6667,307.1,47,80,2.62,MX,1635364292
516,Monte Alegre,-2.0078,-54.0692,304.28,54,100,0.5,BR,1635364292
517,The Valley,18.217,-63.0578,304.07,61,20,5.14,AI,1635364292
518,Yelniki,54.6207,43.876,278.06,92,100,6.24,RU,1635364293
519,Vihti,60.417,24.3197,282.33,94,94,4.02,FI,1635364293
520,Sawākin,19.1059,37.3321,302.66,75,14,1.96,SD,1635364294
521,Nuuk,64.1835,-51.7216,271.97,58,85,2.68,GL,1635364294
522,Bratsk,56.1325,101.6142,269.42,66,35,3.39,RU,1635364294
523,Acapulco de Juárez,16.8634,-99.8901,302.39,73,22,2.59,MX,1635364295
524,Sola,-13.8833,167.55,299.57,80,100,5.96,VU,1635364090
525,Daoukro,7.0591,-3.9631,296.2,92,74,1.06,CI,1635364295
526,Swan Hill,-35.3378,143.5544,290.27,45,100,1.62,AU,1635364296
527,Santa Cruz del Norte,23.1539,-81.9236,303.55,67,61,1.21,CU,1635364296
528,Bilibino,68.0546,166.4372,242.95,99,34,1.27,RU,1635364039
529,Birao,10.2849,22.7882,299.63,49,21,2.17,CF,1635364296
530,Bali,-8.5,115.0,298.69,92,91,1.92,ID,1635364297
531,Daru,-9.0763,143.2092,300.01,83,99,6.58,PG,1635364297
532,Tahoua,14.8888,5.2692,304.61,14,3,4.38,NE,1635364298
533,Bubaque,11.2833,-15.8333,301.29,76,38,3.66,GW,1635364143
534,St. George's,12.0564,-61.7485,300.97,83,75,9.26,GD,1635364298
535,Lamu,-2.2717,40.902,299.27,82,4,5.42,KE,1635364299
536,Te Anau,-45.4167,167.7167,284.04,90,80,1.03,NZ,1635364179
537,Kamaishi,39.2667,141.8833,285.82,82,0,2.51,JP,1635364299
538,Tottori-shi,35.5,134.2333,289.99,63,71,3.81,JP,1635364132
539,Tororo,0.693,34.1809,291.42,81,29,2.52,UG,1635364300
540,Rabo de Peixe,37.8,-25.5833,291.88,88,75,8.75,PT,1635364300
541,Östersund,63.1792,14.6357,280.4,76,75,2.57,SE,1635364300
542,Karpathos,35.507,27.2132,291.13,72,100,5.14,GR,1635364301
543,Alamosa,37.4695,-105.87,287.4,27,1,9.26,US,1635364125
544,Chiredzi,-21.05,31.6667,296.82,58,100,5.95,ZW,1635364301
545,Alcácer do Sal,38.3733,-8.5144,293.05,54,1,1.63,PT,1635364302
546,Vozrozhdeniye,44.5503,38.2136,280.36,73,0,0.98,RU,1635364302
547,Tutóia,-2.7619,-42.2744,305.14,74,9,5.44,BR,1635364303
548,Xinzhou,38.4092,112.7333,283.2,48,97,1.18,CN,1635364303
549,Gudāri,19.35,83.7833,294.48,92,4,1.63,IN,1635364304
550,Kholtoson,50.2981,103.3097,272.83,63,17,0.48,RU,1635364304
551,San Policarpo,12.1791,125.5072,300.18,80,90,4.09,PH,1635364304
552,Mercaderes,1.8009,-77.166,298.7,65,73,1.32,CO,1635364305
553,Kampot,10.6167,104.1833,299.18,91,100,2.71,KH,1635364305
554,Bosaso,11.2842,49.1816,299.47,60,0,1.6,SO,1635364305
555,Tehachapi,35.1322,-118.449,292.44,48,0,0.45,US,1635364306
556,Lüneburg,53.25,10.4,287.72,84,100,3.47,DE,1635364306
557,Barstow,34.8986,-117.0228,296.65,28,0,2.11,US,1635364307
558,Sheridan,44.8333,-106.9173,287.6,30,20,0.45,US,1635364249
559,Ribeira Brava,32.65,-17.0667,294.5,61,7,1.37,PT,1635364307
560,Aykhal,66.0,111.5,264.95,88,100,11.09,RU,1635364307
561,Ust-Nera,64.5667,143.2,261.73,96,100,1.47,RU,1635364308
562,Wangkui,46.8333,126.5,274.81,79,0,2.7,CN,1635364308
563,Dois Vizinhos,-25.7336,-53.0572,298.53,48,97,1.78,BR,1635364264
564,Jām Sāhib,26.2958,68.6292,295.16,24,0,0.49,PK,1635364308
565,Cairns,-16.9167,145.7667,297.12,86,75,3.09,AU,1635364050
566,Verkhoyansk,67.5447,133.385,255.81,99,81,0.59,RU,1635364309
567,Ketchikan,55.3422,-131.6461,281.41,76,75,3.09,US,1635364231
568,Mount Gambier,-37.8333,140.7667,285.1,100,90,3.6,AU,1635364147
569,Puerto Ayacucho,5.6639,-67.6236,300.03,82,89,1.45,VE,1635364309
570,Fairbanks,64.8378,-147.7164,270.5,91,90,2.06,US,1635364041
571,Mehamn,71.0357,27.8492,274.25,74,0,4.12,NO,1635364140
572,Ust'-Omchug,61.15,149.6333,254.56,94,35,0.46,RU,1635364310
573,Los Llanos de Aridane,28.6585,-17.9182,293.01,78,20,0.89,ES,1635364170
574,Adrar,20.5022,-10.0711,296.84,46,47,7.45,MR,1635364310
575,Krechevitsy,58.617,31.401,279.24,93,100,5.16,RU,1635364311
576,Soria,41.6667,-2.6667,281.96,51,4,1.02,ES,1635364311
577,Kaspiysk,42.8816,47.6392,281.25,81,11,4.92,RU,1635364312
578,Boralday,43.3578,76.8594,279.07,70,75,1.0,KZ,1635364312
579,Kitimat,54.0524,-128.6534,282.54,41,100,2.83,CA,1635364121
580,Kifrī,34.6959,44.9661,296.29,25,0,3.77,IQ,1635364312
581,Ouadda,8.0777,22.4007,293.74,91,46,0.51,CF,1635364313
582,Province of Mantua,45.1667,10.7833,285.32,78,0,1.28,IT,1635364313
583,Paulo Afonso,-9.4061,-38.2147,302.7,45,24,4.43,BR,1635364313
584,Borba,-4.3878,-59.5939,301.17,81,94,1.16,BR,1635364314
585,Killin,33.6123,-91.7412,294.12,93,90,3.58,US,1635364314
586,Honningsvåg,70.9821,25.9704,274.69,60,41,10.41,NO,1635364315
587,Bay City,43.5945,-83.8889,284.63,90,90,2.06,US,1635364039
588,Ambilobe,-13.2,49.05,296.68,76,57,1.28,MG,1635364315
589,Brae,60.3964,-1.353,284.1,87,8,5.93,GB,1635364315
590,Sechura,-5.5569,-80.8222,298.07,58,72,7.3,PE,1635364316
591,Neuquén,-38.9516,-68.0591,303.09,20,0,3.6,AR,1635364062
592,Bonthe,7.5264,-12.505,300.42,79,69,4.72,SL,1635364316
593,Tezu,27.9167,96.1667,292.23,52,1,1.95,IN,1635364316
594,Wanaka,-44.7,169.15,287.1,70,29,0.45,NZ,1635364176
