City_ID,City,Lat,Lng,Max Temp,Humidity,Cloudiness,Wind Speed,Country,Date
0,Upernavik,72.7868,-56.1549,263.85,60,13,2.6,GL,1635203150
1,Kavieng,-2.5744,150.7967,301.84,69,98,1.62,PG,1635203150
2,Halifax,44.6453,-63.5724,282.09,81,100,2.24,CA,1635203038
3,Bredasdorp,-34.5322,20.0403,287.55,90,34,4.92,ZA,1635203151
4,Mar del Plata,-38.0023,-57.5575,288.16,62,0,1.79,AR,1635203151
5,São Gabriel da Cachoeira,-0.1303,-67.0892,296.07,97,96,0.43,BR,1635203151
6,Punta Arenas,-53.15,-70.9167,278.21,70,40,4.12,CL,1635203026
7,Pangnirtung,66.1451,-65.7125,267.9,59,51,0.99,CA,1635203152
8,Albany,42.6001,-73.9662,288.24,91,100,1.56,US,1635203152
9,Yellowknife,62.456,-114.3525,278.94,95,97,4.02,CA,1635202859
10,Korla,41.7597,86.1469,281.14,44,0,1.45,CN,1635203153
11,Aswān,24.0934,32.907,296.27,33,0,5.07,EG,1635203153
12,Palmer,42.1584,-72.3287,285.39,84,90,0.89,US,1635203154
13,Mataura,-46.1927,168.8643,292.06,64,88,0.58,NZ,1635203005
14,Bambous Virieux,-20.3428,57.7575,294.38,72,20,7.6,MU,1635202869
15,Katsuura,35.1333,140.3,287.16,94,100,15.08,JP,1635203154
16,Ashland,40.8167,-82.2665,288.53,95,100,1.44,US,1635203025
17,Xining,36.6167,101.7667,274.79,94,100,0.49,CN,1635203155
18,Saint Paul Harbor,57.79,-152.4072,279.88,76,90,4.63,US,1635203155
19,Barrow,71.2906,-156.7887,270.16,86,90,6.69,US,1635203123
20,Ribeira Grande,38.5167,-28.7,293.36,77,52,8.72,PT,1635203156
21,Tuktoyaktuk,69.4541,-133.0374,271.8,97,100,3.07,CA,1635203001
22,Mbini,1.574,9.6134,297.5,93,100,3.43,GQ,1635203156
23,Luanda,-8.8368,13.2343,297.41,76,98,4.16,AO,1635203152
24,Cidreira,-30.1811,-50.2056,291.72,79,0,3.61,BR,1635203157
25,Coquimbo,-29.9533,-71.3436,288.0,88,90,2.57,CL,1635203157
26,Castro,-24.7911,-50.0119,288.34,90,58,1.31,BR,1635202883
27,Auki,-8.7676,160.7034,303.06,63,47,1.99,SB,1635203158
28,Acapulco de Juárez,16.8634,-99.8901,301.05,83,90,0.0,MX,1635203131
29,Cabo San Lucas,22.8909,-109.9124,304.05,68,0,6.2,MX,1635202901
30,Bluff,-46.6,168.3333,285.77,86,76,3.28,NZ,1635203158
31,Khatanga,71.9667,102.5,258.17,96,100,3.39,RU,1635203159
32,Rikitea,-23.1203,-134.9692,297.21,72,78,8.99,PF,1635202925
33,Christchurch,-43.5333,172.6333,292.61,74,90,0.45,NZ,1635203103
34,Hobart,-42.8794,147.3294,285.94,63,75,0.45,AU,1635203160
35,Cabedelo,-6.9811,-34.8339,300.52,69,71,7.15,BR,1635203160
36,Ukiah,39.1502,-123.2078,289.89,61,1,4.63,US,1635203161
37,Tasiilaq,65.6145,-37.6368,274.24,81,100,2.76,GL,1635203161
38,Husavik,66.0449,-17.3389,271.96,79,73,2.72,IS,1635203161
39,Busselton,-33.65,115.3333,283.12,78,98,0.98,AU,1635203162
40,Vaini,-21.2,-175.2,300.24,74,20,5.14,TO,1635203162
41,Okhotsk,59.3833,143.3,267.09,78,52,3.67,RU,1635203094
42,Hamilton,39.1834,-84.5333,285.79,89,100,0.45,US,1635202798
43,Hithadhoo,-0.6,73.0833,301.51,69,79,7.14,MV,1635203164
44,Kruisfontein,-34.0033,24.7314,289.75,94,2,2.1,ZA,1635202982
45,Klyuchi,52.2667,79.1667,280.37,47,98,4.75,RU,1635203164
46,Okato,-39.2,173.8833,292.27,89,95,4.29,NZ,1635203165
47,São Félix do Xingu,-6.6447,-51.995,297.56,88,87,0.77,BR,1635203165
48,Ko Samui,9.5357,99.9357,300.67,75,58,2.92,TH,1635203166
49,Qaanaaq,77.484,-69.3632,257.1,60,62,6.47,GL,1635203166
50,Mossamedes,-15.1961,12.1522,290.4,82,7,3.32,AO,1635203167
51,Drumheller,51.4617,-112.7101,286.52,30,100,4.22,CA,1635203167
52,Muli,2.9167,73.5667,301.12,77,100,7.93,MV,1635203168
53,Lamont,35.2597,-118.9143,290.85,73,100,2.05,US,1635203168
54,Berdigestyakh,62.0989,126.6992,272.79,99,100,1.87,RU,1635203169
55,Port Alfred,-33.5906,26.891,290.46,82,25,5.95,ZA,1635203169
56,Bud,39.447,-86.1758,284.02,93,100,7.43,US,1635203170
57,Hasaki,35.7333,140.8333,287.37,90,100,14.92,JP,1635203170
58,Hilo,19.7297,-155.09,304.97,73,40,5.66,US,1635203167
59,Avarua,-21.2078,-159.775,298.18,61,75,6.69,CK,1635203171
60,Cap Malheureux,-19.9842,57.6142,294.52,80,7,1.34,MU,1635202988
61,Saint-François,46.4154,3.9054,283.53,100,0,1.54,FR,1635203171
62,Dzaoudzi,-12.7887,45.2699,299.09,83,75,2.57,YT,1635203172
63,São João da Barra,-21.6403,-41.0511,294.97,86,99,4.0,BR,1635203172
64,Portland,45.5234,-122.6762,285.84,88,100,1.79,US,1635202835
65,Ushuaia,-54.8,-68.3,273.82,86,64,1.65,AR,1635203173
66,Port Elizabeth,-33.918,25.5701,290.98,87,0,5.12,ZA,1635203173
67,East London,-33.0153,27.9116,291.07,82,92,5.77,ZA,1635203173
68,Lompoc,34.6391,-120.4579,292.35,73,40,5.66,US,1635202898
69,Arraial do Cabo,-22.9661,-42.0278,294.16,86,100,5.45,BR,1635203174
70,Djibouti,11.5,42.5,298.83,69,3,6.5,DJ,1635203174
71,Butaritari,3.0707,172.7902,300.72,75,7,3.15,KI,1635203175
72,Avera,33.194,-82.5271,298.55,83,58,3.36,US,1635203137
73,Saint-Pierre,-21.3393,55.4781,294.97,70,20,1.54,RE,1635203175
74,Airai,-8.9266,125.4092,292.63,55,68,1.26,TL,1635202930
75,Stutterheim,-32.5708,27.424,282.79,93,61,1.33,ZA,1635203176
76,Saint-Philippe,-21.3585,55.7679,294.92,82,41,5.74,RE,1635203177
77,Bamiantong,44.9333,130.5333,278.5,63,36,2.0,CN,1635203122
78,Atar,20.5169,-13.0499,302.62,23,94,4.09,MR,1635203177
79,Vostok,46.4856,135.8833,276.5,67,1,1.42,RU,1635203178
80,Vao,-22.6667,167.4833,295.62,69,42,5.99,NC,1635203178
81,Port Hedland,-20.3167,118.5667,298.18,78,0,4.12,AU,1635203178
82,Cape Town,-33.9258,18.4232,290.42,61,55,1.79,ZA,1635203179
83,Dikson,73.5069,80.5464,263.04,83,100,7.37,RU,1635203179
84,Griffith,41.5284,-87.4237,284.76,76,90,0.45,US,1635203180
85,Iqaluit,63.7506,-68.5145,272.98,83,62,2.68,CA,1635203180
86,Grand Gaube,-20.0064,57.6608,293.92,80,8,2.24,MU,1635203181
87,Chokurdakh,70.6333,147.9167,242.37,100,91,0.79,RU,1635203181
88,Prince Rupert,54.3161,-130.3201,283.44,76,100,1.75,CA,1635203182
89,Klaksvík,62.2266,-6.589,279.66,78,100,4.96,FO,1635203182
90,Waingapu,-9.6567,120.2641,300.61,74,84,1.35,ID,1635203183
91,Alta Floresta,-9.8756,-56.0861,296.91,83,98,0.85,BR,1635203183
92,Shanghai,31.2222,121.4581,291.98,84,0,2.0,CN,1635203172
93,Tambun,-6.2641,107.0712,301.75,88,85,1.54,ID,1635203184
94,New Norfolk,-42.7826,147.0587,285.74,45,21,0.74,AU,1635203184
95,Simdega,22.6167,84.5167,293.6,62,91,1.88,IN,1635203185
96,Ayagoz,47.9714,80.4392,276.4,46,62,1.37,KZ,1635203185
97,Atbasar,51.8,68.3333,282.12,45,100,6.25,KZ,1635203186
98,Jamestown,42.097,-79.2353,288.16,91,75,1.34,US,1635203187
99,Lorengau,-2.0226,147.2712,302.33,67,41,2.29,PG,1635203187
100,Puerto Ayora,-0.7393,-90.3518,293.46,92,58,2.24,EC,1635203188
101,Isangel,-19.55,169.2667,299.83,74,16,4.42,VU,1635203188
102,Ixtapa,20.7,-105.2,302.72,74,75,3.09,MX,1635203188
103,Tegul'det,57.3064,88.1667,274.58,87,98,1.04,RU,1635203189
104,Bela,25.9333,81.9833,294.6,71,0,1.9,IN,1635203190
105,Ekenäs,59.9736,23.4339,281.54,87,100,5.29,FI,1635203190
106,La Ronge,55.1001,-105.2842,279.84,64,100,9.03,CA,1635203190
107,Lagoa,39.05,-27.9833,292.78,73,2,5.7,PT,1635203191
108,Ilulissat,69.2167,-51.1,261.16,67,0,1.54,GL,1635203191
109,Carnarvon,-24.8667,113.6333,290.51,59,51,7.99,AU,1635202955
110,Hobyo,5.3505,48.5268,299.38,76,42,4.76,SO,1635203192
111,Huarmey,-10.0681,-78.1522,291.95,78,10,3.34,PE,1635203192
112,Whitehorse,60.7161,-135.0538,272.05,76,100,1.19,CA,1635203064
113,Marilândia,-19.4128,-40.5417,294.48,92,96,1.21,BR,1635203193
114,Atuona,-9.8,-139.0333,298.43,75,25,7.17,PF,1635203193
115,Tura,25.5198,90.2201,291.75,92,0,1.29,IN,1635203194
116,Ponta do Sol,32.6667,-17.1,294.5,71,43,2.7,PT,1635202952
117,Kaitangata,-46.2817,169.8464,286.53,80,100,3.06,NZ,1635203194
118,Fort Nelson,58.8053,-122.7002,271.92,100,90,1.54,CA,1635203195
119,Asău,46.4333,26.4,274.13,68,0,1.11,RO,1635203195
120,Barra do Garças,-15.89,-52.2567,298.78,67,99,1.82,BR,1635203119
121,Bengkulu,-3.8004,102.2655,296.67,89,100,1.36,ID,1635203196
122,Bac Lieu,9.285,105.7244,298.32,90,100,3.01,VN,1635203196
123,Caravelas,-17.7125,-39.2481,297.07,94,100,1.48,BR,1635203072
124,Kaili,-3.4626,120.2147,295.69,81,100,1.1,ID,1635203197
125,Todos Santos,23.45,-110.2167,303.77,72,0,4.65,MX,1635203197
126,Zaysan,47.4667,84.8667,277.61,44,17,0.78,KZ,1635203198
127,Lüderitz,-26.6481,15.1594,287.04,90,3,2.53,NA,1635203198
128,Thompson,55.7435,-97.8558,276.18,69,75,3.59,CA,1635203199
129,Naviraí,-23.065,-54.1906,292.57,89,39,2.2,BR,1635203199
130,Haines Junction,60.7522,-137.5108,272.98,78,100,0.87,CA,1635203199
131,Nouadhibou,20.931,-17.0347,294.21,77,100,8.28,MR,1635203200
132,Te Anau,-45.4167,167.7167,289.76,74,62,1.54,NZ,1635203200
133,Lebu,-37.6167,-73.65,285.02,90,6,5.6,CL,1635203201
134,Hermanus,-34.4187,19.2345,289.76,85,50,6.57,ZA,1635203201
135,Lagos,6.5833,3.75,298.73,92,95,2.03,NG,1635202972
136,Chunoyar,57.4467,97.3217,279.01,72,81,7.26,RU,1635203202
137,Nizhnyaya Tavda,57.6731,66.1725,273.43,95,100,7.37,RU,1635203202
138,Kitimat,54.0524,-128.6534,283.1,43,100,0.52,CA,1635203203
139,Boulsa,12.6675,-0.5758,302.21,37,29,2.79,BF,1635203203
140,Pisco,-13.7,-76.2167,290.38,77,0,8.23,PE,1635203204
141,Kenai,60.5544,-151.2583,278.79,71,100,2.68,US,1635202968
142,Northam,51.0333,-4.2167,285.42,92,56,4.09,GB,1635203205
143,Motala,58.5371,15.0365,282.03,92,96,5.05,SE,1635203205
144,Pueblo Nuevo,23.3833,-105.3833,292.28,68,47,2.15,MX,1635203206
145,Norman Wells,65.282,-126.8329,268.17,93,90,2.57,CA,1635203206
146,Turukhansk,65.8167,87.9833,262.92,97,99,3.1,RU,1635203207
147,Rocha,-34.4833,-54.3333,287.56,80,0,2.44,UY,1635203207
148,Mount Gambier,-37.8333,140.7667,285.92,54,45,2.82,AU,1635203208
149,Oliver,49.1831,-119.5524,285.1,75,99,3.93,CA,1635203208
150,Chuguyevka,44.1653,133.8633,279.38,62,0,1.54,RU,1635203209
151,Tuy Hoa,13.0833,109.3,296.79,93,100,5.38,VN,1635203209
152,Ostrovnoy,68.0531,39.5131,266.9,95,68,2.73,RU,1635202930
153,Ondjiva,-17.0667,15.7333,296.64,18,44,2.88,AO,1635203210
154,Half Moon Bay,37.4636,-122.4286,291.78,71,1,1.34,US,1635203211
155,Izmaylovo,53.7211,47.2458,270.31,80,81,2.22,RU,1635203211
156,Siderno,38.2779,16.302,291.09,92,99,8.31,IT,1635203211
157,Geneva,41.8875,-88.3054,284.21,69,20,1.79,US,1635202953
158,Bonthe,7.5264,-12.505,299.04,85,95,2.83,SL,1635202989
159,Dahuk,36.8695,42.994,288.64,30,69,2.04,IQ,1635203212
160,Aklavik,68.2191,-135.0107,269.52,95,97,0.69,CA,1635203213
161,Manaus,-3.1019,-60.025,303.43,78,75,3.6,BR,1635203213
162,Grøa,62.65,8.7167,281.2,93,100,3.52,NO,1635203214
163,Saskylakh,71.9167,114.0833,254.6,97,100,1.22,RU,1635203214
164,Kapaa,22.0752,-159.319,302.14,82,90,2.24,US,1635203215
165,Buinsk,54.95,48.2833,272.14,75,75,3.2,RU,1635203215
166,Lodja,-3.4833,23.4333,294.13,99,100,0.62,CD,1635203216
167,Nikolskoye,59.7035,30.7861,280.59,88,99,4.28,RU,1635203216
168,Chui,-33.6971,-53.4616,290.33,76,0,2.83,UY,1635203217
169,Hong Kong,22.2855,114.1577,297.22,76,99,0.89,HK,1635203217
170,Benátky nad Jizerou,50.2909,14.8234,280.8,65,100,2.09,CZ,1635203217
171,Faanui,-16.4833,-151.75,297.11,89,98,3.55,PF,1635203218
172,Afuá,-0.1567,-50.3867,299.72,80,6,2.92,BR,1635203219
173,Praia da Vitória,38.7333,-27.0667,293.57,81,47,7.11,PT,1635202934
174,Moindou,-21.6924,165.677,300.12,58,1,2.3,NC,1635203220
175,Kenora,49.8167,-94.4337,281.14,56,23,4.02,CA,1635203220
176,Antalaha,-14.9003,50.2788,295.04,84,24,2.34,MG,1635203221
177,Yuli,9.6989,10.2744,300.12,64,66,2.24,NG,1635203221
178,Krasnosel'kup,65.7,82.4667,263.31,91,75,3.84,RU,1635203049
179,Sitka,57.0531,-135.33,282.09,71,75,0.0,US,1635203221
180,Tuatapere,-46.1333,167.6833,287.9,89,87,0.78,NZ,1635203222
181,Kavaratti,10.5669,72.642,301.15,73,55,6.46,IN,1635203222
182,Tamasane,-22.4184,27.4013,288.61,84,94,6.11,BW,1635203223
183,Guerrero Negro,27.9769,-114.0611,294.27,65,17,7.59,MX,1635203223
184,Mehamn,71.0357,27.8492,273.51,85,86,11.65,NO,1635203224
185,Kumul,42.8,93.45,280.68,35,0,3.39,CN,1635203225
186,Rameshki,57.3439,36.0453,273.41,91,45,4.24,RU,1635203225
187,Souillac,-20.5167,57.5167,293.91,73,27,7.37,MU,1635203226
188,Churāchāndpur,24.3333,93.6667,288.8,98,69,0.26,IN,1635203226
189,Bubaque,11.2833,-15.8333,301.47,75,90,3.3,GW,1635203227
190,Constitución,-35.3333,-72.4167,288.73,73,78,7.72,CL,1635203227
191,Mahébourg,-20.4081,57.7,293.85,72,19,7.76,MU,1635203227
192,Narsaq,60.9167,-46.05,277.27,46,23,3.54,GL,1635203228
193,Kloulklubed,7.0419,134.2556,302.43,62,28,3.81,PW,1635203228
194,Vastseliina,57.7303,27.2932,274.51,76,100,4.73,EE,1635203229
195,Karpinsk,59.7654,60.0085,269.81,72,9,4.36,RU,1635203229
196,Cascais,38.6979,-9.4215,289.79,73,0,4.47,PT,1635203230
197,Hetauda,27.4284,85.0322,294.79,81,0,1.83,NP,1635203230
198,Ternate,0.8,127.4,300.89,78,30,1.75,ID,1635203231
199,São Filipe,14.8961,-24.4956,299.23,76,36,4.36,CV,1635203053
200,Methven,-43.6333,171.65,291.74,63,96,1.62,NZ,1635203232
201,Talnakh,69.4865,88.3972,264.21,95,100,2.83,RU,1635203232
202,Teya,60.3778,92.6267,270.82,81,99,3.74,RU,1635203232
203,Dabakala,8.3667,-4.4333,296.88,90,54,1.64,CI,1635203233
204,Bethel,41.3712,-73.414,293.15,87,90,2.06,US,1635203233
205,Aykhal,66.0,111.5,261.68,95,89,5.24,RU,1635203234
206,Riacho de Santana,-13.6092,-42.9389,298.31,71,98,1.21,BR,1635203234
207,Iturama,-19.7281,-50.1956,295.98,70,65,2.69,BR,1635203234
208,Līsakovsk,52.5369,62.4936,276.86,81,98,6.27,KZ,1635203235
209,Pacific Grove,36.6177,-121.9166,291.49,77,1,1.34,US,1635203042
210,Ancud,-41.8697,-73.8203,285.05,95,100,6.56,CL,1635203235
211,Santa Cruz de la Sierra,-17.8,-63.1667,298.26,32,96,0.82,BO,1635203236
212,Namatanai,-3.6667,152.4333,302.15,68,88,1.76,PG,1635203236
213,Cherskiy,68.75,161.3,249.06,95,99,0.98,RU,1635203237
214,Yenotayevka,47.2456,47.0281,275.69,64,54,4.29,RU,1635203238
215,Kampot,10.6167,104.1833,298.18,89,84,2.58,KH,1635203239
216,Yulara,-25.2406,130.9889,301.2,43,1,6.75,AU,1635203239
217,George Town,5.4112,100.3354,300.11,88,20,1.03,MY,1635203239
218,Degollado,20.467,-102.1498,287.66,92,100,1.63,MX,1635203240
219,Niono,14.2526,-5.993,304.94,34,37,3.68,ML,1635203240
220,Kuytun,54.3419,101.5036,276.44,64,97,2.71,RU,1635203241
221,Ullapool,57.8987,-5.1604,283.34,90,94,4.16,GB,1635203241
222,Melfi,40.9965,15.6514,286.76,97,100,1.41,IT,1635203242
223,Bata,1.8639,9.7658,297.27,95,100,3.54,GQ,1635203242
224,Sept-Îles,50.2001,-66.3821,280.96,87,3,0.45,CA,1635202953
225,Borşa,47.6553,24.6633,276.73,61,0,0.39,RO,1635203244
226,Geraldton,-28.7667,114.6,285.44,94,75,3.09,AU,1635203244
227,Paredon,16.0333,-93.8667,301.91,75,32,2.06,MX,1635203245
228,Taoudenni,22.6783,-3.9836,303.7,17,61,4.2,ML,1635203246
229,Hachinohe,40.5,141.5,286.31,77,100,1.23,JP,1635203246
230,Pevek,69.7008,170.3133,254.91,95,100,2.0,RU,1635203247
231,Sarapul,56.4763,53.7978,268.94,84,8,2.96,RU,1635203247
232,Dhanwār,24.4167,85.9833,294.29,69,78,1.95,IN,1635203248
233,Dingle,10.9995,122.6711,298.78,90,88,2.54,PH,1635203248
234,Comodoro Rivadavia,-45.8667,-67.5,289.07,33,0,12.35,AR,1635203249
235,Batagay,67.6333,134.6333,253.5,100,74,1.03,RU,1635203249
236,Karabük,41.2049,32.6277,278.9,82,0,1.26,TR,1635203250
237,Umluj,25.0213,37.2685,299.4,53,0,2.71,SA,1635203250
238,Imbituba,-28.24,-48.6703,294.09,83,0,5.44,BR,1635203012
239,Mulegé,26.8833,-111.9833,302.27,42,0,2.48,MX,1635203251
240,Grajewo,53.6473,22.4554,277.19,73,99,3.96,PL,1635203252
241,Saint George,37.1041,-113.5841,299.41,26,1,3.13,US,1635203252
242,Nyimba,-14.5566,30.8149,298.98,43,3,3.27,ZM,1635203252
243,Menongue,-14.6585,17.691,293.82,64,97,0.59,AO,1635203253
244,Batagay-Alyta,67.8006,130.4114,256.53,90,100,1.3,RU,1635203254
245,Opuwo,-18.0607,13.84,293.29,26,5,4.05,NA,1635203254
246,Portsmouth,50.799,-1.0913,285.35,89,59,0.89,GB,1635203254
247,Perevoz,55.5961,44.5446,271.88,75,65,5.94,RU,1635203255
248,Basqal,40.7552,48.391,277.44,69,100,2.06,AZ,1635203256
249,Bruntál,49.9884,17.4647,280.06,76,100,7.2,CZ,1635203256
250,Finschhafen,-6.6024,147.8681,302.21,69,88,3.01,PG,1635203256
251,Nanortalik,60.1432,-45.2371,274.52,61,41,3.46,GL,1635203257
252,Gaza,31.5,34.4667,293.14,73,0,1.82,PS,1635203257
253,Nicoya,10.1483,-85.452,298.9,90,75,0.81,CR,1635203258
254,Laas,46.6166,10.7002,278.16,48,95,0.64,IT,1635203258
255,Longyearbyen,78.2186,15.6401,266.06,63,0,8.23,SJ,1635203259
256,Ugoofaaru,5.6667,73.0,300.75,77,92,4.83,MV,1635203259
257,Ponta Delgada,37.7333,-25.6667,293.55,73,20,2.57,PT,1635203091
258,Dauriya,49.9333,116.8667,271.32,85,5,5.99,RU,1635203259
259,Port-Gentil,-0.7193,8.7815,297.37,93,100,3.72,GA,1635203260
260,Sarankhola,22.3082,89.7897,294.68,85,0,1.66,BD,1635203260
261,Buala,-8.145,159.5921,302.6,67,53,3.71,SB,1635203023
262,Karratha,-20.7377,116.8463,297.69,40,3,6.38,AU,1635203261
263,Nioro,13.35,-15.75,299.57,78,100,1.73,GM,1635203262
264,Belmonte,-15.8631,-38.8828,299.43,91,100,3.51,BR,1635203262
265,Shiloh,38.5614,-89.8973,285.09,78,90,5.14,US,1635202973
266,Storforshei,66.4043,14.5233,277.4,100,75,1.03,NO,1635203263
267,Fortuna,40.5982,-124.1573,290.33,63,75,0.45,US,1635203263
268,Esperance,-33.8667,121.9,285.06,64,63,2.28,AU,1635203264
269,Champerico,14.3,-91.9167,303.34,78,66,2.29,GT,1635203265
270,Makar'yev,57.8797,43.8069,274.41,84,100,6.15,RU,1635203265
271,Starogard Gdański,53.964,18.5264,279.84,68,100,3.43,PL,1635203266
272,Taltal,-25.4,-70.4833,288.97,76,23,1.59,CL,1635203267
273,Anadyr,64.75,177.4833,256.43,85,20,7.0,RU,1635203268
274,Hofn,64.2539,-15.2082,277.99,71,100,2.13,IS,1635203268
275,Rawlins,41.7911,-107.2387,292.39,26,1,5.66,US,1635203269
276,Bambanglipuro,-7.95,110.2833,299.28,74,95,2.22,ID,1635203269
277,Kindu,-2.95,25.95,294.35,98,100,0.87,CD,1635203270
278,Cedar City,37.6775,-113.0619,289.69,33,1,13.38,US,1635203270
279,Tautira,-17.7333,-149.15,301.16,77,89,1.82,PF,1635203271
280,Linkou,45.3,130.2833,278.35,67,59,1.93,CN,1635203271
281,Mogadishu,2.0371,45.3438,299.27,81,48,4.7,SO,1635203272
282,Ketchikan,55.3422,-131.6461,282.41,81,90,1.54,US,1635203273
283,Broken Hill,-31.95,141.4333,292.02,19,0,5.11,AU,1635203273
284,Loudi,27.7344,111.9944,288.35,75,99,1.24,CN,1635203274
285,Naze,28.3667,129.4833,292.95,63,0,4.26,JP,1635203274
286,Coahuayana Viejo,18.7333,-103.6833,302.86,80,100,1.25,MX,1635203275
287,Breytovo,58.2993,37.8617,276.26,85,100,7.26,RU,1635203275
288,Carutapera,-1.195,-46.02,300.09,79,42,3.74,BR,1635203275
289,Manokwari,-0.8667,134.0833,301.3,69,63,2.94,ID,1635203276
290,Sweetwater,25.7634,-80.3731,302.16,79,75,3.6,US,1635203277
291,Luganville,-15.5333,167.1667,300.89,74,27,4.05,VU,1635203277
292,Malabo,3.75,8.7833,298.95,89,100,2.82,GQ,1635203278
293,San Matías,-16.3667,-58.4,300.54,50,86,0.98,BO,1635203278
294,Vardø,70.3705,31.1107,274.59,79,100,10.49,NO,1635203279
295,Zhangjiakou,40.81,114.8794,279.61,42,18,2.9,CN,1635203279
296,Severo-Kuril'sk,50.6789,156.125,280.51,68,3,4.92,RU,1635203280
297,Córdoba,-31.4135,-64.1811,304.62,15,20,5.66,AR,1635202734
298,Evensk,61.95,159.2333,264.03,79,51,2.92,RU,1635203280
299,Nānākuli,21.3906,-158.1547,303.12,52,75,4.12,US,1635203281
300,Puerto Ayacucho,5.6639,-67.6236,298.65,88,96,3.34,VE,1635203281
301,Mindyak,54.0231,58.7891,270.51,77,55,6.81,RU,1635203282
302,Baní,18.2833,-70.3333,299.18,81,18,4.06,DO,1635203282
303,Gushikawa,26.3544,127.8686,295.72,76,1,2.06,JP,1635203283
304,Maningrida,-12.0667,134.2667,303.15,64,61,3.1,AU,1635203283
305,Adrar,20.5022,-10.0711,301.29,16,87,6.53,MR,1635203284
306,Saldanha,-33.0117,17.9442,289.85,71,64,4.81,ZA,1635203284
307,Terrace,54.5163,-128.6035,282.83,86,100,0.63,CA,1635203285
308,San Patricio,28.017,-97.5169,304.53,63,94,5.5,US,1635203285
309,Clyde River,70.4692,-68.5914,264.86,74,37,2.97,CA,1635203001
310,Olafsvik,64.8945,-23.7142,274.95,69,54,2.29,IS,1635203286
311,Wad Rāwah,15.1603,33.1397,306.24,20,73,6.25,SD,1635203286
312,La Antigua,6.7153,-76.079,289.07,98,78,1.21,CO,1635203287
313,Gazli,40.1333,63.45,285.14,31,59,3.52,UZ,1635203288
314,Point Fortin,10.1833,-61.6833,299.34,85,100,6.67,TT,1635203288
315,Burnie,-41.0667,145.9167,287.01,53,0,2.54,AU,1635203288
316,Tual,-5.6667,132.75,301.59,74,39,3.27,ID,1635203289
317,Buchanan,5.8808,-10.0467,297.92,91,100,2.78,LR,1635203289
318,Tiksi,71.6872,128.8694,256.49,96,98,2.17,RU,1635203290
319,Khorinsk,52.1657,109.7726,271.55,89,80,1.67,RU,1635203290
320,Yangi Marg`ilon,40.4272,71.7189,280.83,27,8,1.18,UZ,1635203015
321,La Massana,42.5667,1.4833,277.36,71,90,1.67,AD,1635203291
322,Esim,4.8699,-2.2405,298.81,87,81,4.54,GH,1635203291
323,Corinth,37.9407,22.9573,288.09,70,100,3.32,GR,1635203251
324,Kabompo,-13.5927,24.2008,293.2,75,51,1.83,ZM,1635203292
325,Mossoró,-5.1875,-37.3442,300.75,57,12,8.59,BR,1635203292
326,Henties Bay,-22.116,14.2845,288.63,89,0,0.92,NA,1635203293
327,Camacha,33.0833,-16.3333,292.57,68,40,5.14,PT,1635203293
328,Japeri,-22.6431,-43.6533,295.55,92,100,0.87,BR,1635203294
329,Synya,65.3718,58.0387,262.47,97,77,1.34,RU,1635203294
330,San Martín,-33.081,-68.4681,303.45,8,2,6.34,AR,1635203295
331,Novikovo,51.1537,37.8879,272.41,71,5,2.07,RU,1635203296
332,Necochea,-38.5473,-58.7368,285.95,65,18,2.02,AR,1635203296
333,Ballyshannon,54.5,-8.1833,283.49,91,100,4.21,IE,1635203296
334,Codrington,-38.2667,141.9667,285.24,60,35,4.1,AU,1635203297
335,Snåase,64.2457,12.3778,277.69,99,100,0.92,NO,1635203297
336,Kinablangan,7.6947,126.5503,299.28,87,99,2.06,PH,1635203298
337,Kimberley,-28.7323,24.7623,288.22,83,3,8.02,ZA,1635203298
338,Mananara,-16.1667,49.7667,295.2,88,62,2.28,MG,1635203298
339,Edéa,3.8,10.1333,296.61,99,100,0.43,CM,1635203299
340,Pechenga,69.5259,31.1703,269.63,90,100,1.44,RU,1635203299
341,Kharan,28.5833,65.4167,292.12,25,22,2.12,PK,1635203300
342,Konëvo,62.1215,39.3192,273.37,99,100,0.18,RU,1635203300
343,Kerema,-7.9631,145.7785,300.67,79,100,0.51,PG,1635203301
344,San Policarpo,12.1791,125.5072,300.33,80,99,4.31,PH,1635203301
345,Brigantine,39.4101,-74.3646,295.31,91,1,3.09,US,1635203302
346,Kahului,20.8947,-156.47,302.16,70,20,11.32,US,1635203302
347,Ada,43.4166,-116.1262,282.79,90,90,4.47,US,1635203302
348,Ust-Nera,64.5667,143.2,259.23,98,98,1.26,RU,1635203303
349,Porto-Novo,6.4965,2.6036,299.1,88,75,2.56,BJ,1635203304
350,Eyl,7.9803,49.8164,298.34,78,66,2.14,SO,1635203304
351,Hambantota,6.1241,81.1185,299.03,83,100,4.6,LK,1635203305
352,Thomasville,35.8826,-80.082,296.57,78,48,1.34,US,1635203141
353,Kerrobert,51.9168,-109.1348,286.54,44,100,6.17,CA,1635203306
354,Newport,51.5877,-2.9984,285.45,92,83,3.31,GB,1635203084
355,Kajaani,64.2273,27.7285,277.18,100,90,3.6,FI,1635203306
356,Boyolangu,-8.1181,111.8935,298.4,77,62,1.43,ID,1635203307
357,Pangkalanbuun,-2.6833,111.6167,297.04,96,92,0.1,ID,1635203240
358,Ürümqi,43.801,87.6005,273.68,64,0,2.0,CN,1635203286
359,Kirakira,-10.4544,161.9205,303.1,67,19,4.78,SB,1635203308
360,Bontang,0.1333,117.5,298.24,87,89,1.6,ID,1635203309
361,Alice Springs,-23.7,133.8833,300.9,44,8,4.12,AU,1635203309
362,Koygorodok,60.445,50.9968,270.92,77,94,1.99,RU,1635203310
363,Tilichiki,60.4667,166.1,272.16,95,100,6.16,RU,1635203310
364,Kulhudhuffushi,6.6221,73.07,300.69,77,97,3.94,MV,1635203311
365,Ocós,14.5094,-92.1933,303.32,78,84,2.45,GT,1635203311
366,Talara,-4.5772,-81.2719,292.57,82,90,5.66,PE,1635203312
367,Tezu,27.9167,96.1667,292.37,68,2,1.79,IN,1635203312
368,Tessalit,20.1986,1.0114,303.07,19,80,3.92,ML,1635203313
369,Río Gallegos,-51.6226,-69.2181,280.1,47,86,9.12,AR,1635203313
370,Bilma,18.6853,12.9164,300.41,16,0,1.78,NE,1635203314
371,Soweto,-26.2678,27.8585,288.02,96,97,2.06,ZA,1635203314
372,Caiapônia,-16.9567,-51.8103,296.69,65,91,1.75,BR,1635203315
373,Muzambinho,-21.3758,-46.5256,291.37,94,77,1.53,BR,1635203315
374,Kailua,21.4022,-157.7394,303.14,68,53,9.16,US,1635203316
375,Tabas,33.5959,56.9244,288.44,26,0,0.72,IR,1635203316
376,Taksimo,56.3444,114.8794,270.98,79,73,0.51,RU,1635203317
377,Alpena,45.0617,-83.4327,282.69,76,90,2.24,US,1635203317
378,Port Blair,11.6667,92.75,299.92,82,93,3.18,IN,1635203318
379,Alofi,-19.0595,-169.9187,301.09,65,75,6.69,NU,1635203318
380,Shelburne,44.0787,-80.2041,278.62,98,100,7.92,CA,1635203319
381,Washington,47.5001,-120.5015,284.27,74,93,1.88,US,1635202874
382,Mersing,2.4312,103.8405,297.86,89,67,1.58,MY,1635203118
383,Skjervøy,70.0311,20.9714,273.54,72,98,7.16,NO,1635203125
384,Chicago,41.85,-87.65,284.56,70,100,2.24,US,1635202756
385,Kupang,-10.1667,123.5833,300.47,78,20,2.06,ID,1635203320
386,Sambava,-14.2667,50.1667,296.32,80,73,4.0,MG,1635203320
387,Tokuyama,34.05,131.8167,289.4,74,0,1.95,JP,1635203321
388,Igarka,67.4667,86.5833,264.63,96,93,3.66,RU,1635203321
389,Boden,65.8252,21.6886,273.15,100,100,0.51,SE,1635203322
390,Cockburn Town,21.4612,-71.1419,301.38,76,22,6.95,TC,1635203322
391,Kāmyārān,34.7956,46.9355,280.57,32,0,0.91,IR,1635203323
392,Pizarro,4.9533,-77.366,298.8,87,61,2.74,CO,1635203323
393,Altamont,42.2068,-121.7372,282.46,61,90,0.45,US,1635203323
394,Herne,51.55,7.2167,285.11,85,96,0.45,DE,1635203324
395,Kudahuvadhoo,2.6708,72.8944,301.34,75,98,7.09,MV,1635203325
396,Njombe,-9.3333,34.7667,286.03,73,21,2.62,TZ,1635203325
397,Los Llanos de Aridane,28.6585,-17.9182,293.01,83,75,3.6,ES,1635203326
398,Pokhara,28.2333,83.9833,288.2,59,6,3.03,NP,1635203326
399,Dalvik,65.9702,-18.5286,270.98,77,35,2.71,IS,1635203327
400,Shafranovo,53.9667,54.7667,270.68,78,30,4.22,RU,1635203327
401,Brae,60.3964,-1.353,283.1,74,91,7.69,GB,1635203328
402,Eureka,40.8021,-124.1637,290.48,73,69,3.58,US,1635203125
403,Rørvik,64.8621,11.2373,282.85,83,100,7.2,NO,1635203328
404,Jinxiang,27.4327,120.6062,291.73,81,99,3.62,CN,1635203329
405,Paraty,-23.2178,-44.7131,292.9,97,100,1.27,BR,1635203040
406,Jalu,29.0331,21.5482,296.83,34,31,6.41,LY,1635203329
407,San Cristobal,7.7669,-72.225,297.25,98,89,1.04,VE,1635203329
408,Urdoma,61.7533,48.5442,271.15,78,100,1.64,RU,1635203330
409,Muros,42.7762,-9.0603,289.17,95,2,2.48,ES,1635203330
410,Sola,-13.8833,167.55,300.67,74,29,7.2,VU,1635203330
411,‘Āhuimanu,21.4447,-157.8378,302.99,59,40,8.23,US,1635203331
412,Guayaramerín,-10.8368,-65.3614,293.32,97,100,0.81,BO,1635203332
413,Pointe Michel,15.25,-61.3833,300.61,71,22,6.64,DM,1635203332
414,Chupa,66.27,33.0549,272.86,96,100,3.77,RU,1635203333
415,Ende,-8.8432,121.6623,300.42,82,76,1.18,ID,1635203333
416,Kiri Buru,22.0833,85.35,291.48,79,0,0.45,IN,1635203334
417,Pangody,65.85,74.4859,268.18,93,100,2.94,RU,1635203334
418,Sidrolândia,-20.9319,-54.9614,295.59,63,8,2.46,BR,1635203335
419,Benton Harbor,42.1167,-86.4542,283.28,72,90,4.12,US,1635203114
420,Pasni,25.2631,63.471,297.62,63,0,2.44,PK,1635203335
421,Beringovskiy,63.05,179.3167,263.13,72,100,2.25,RU,1635203336
422,Baykit,61.67,96.37,269.6,87,99,3.23,RU,1635203336
423,Labytnangi,66.6572,66.4183,262.76,88,29,3.4,RU,1635203337
424,Lithgow,-33.4833,150.15,287.86,38,1,1.0,AU,1635203337
425,Artyom,40.4723,50.333,282.23,79,100,16.49,AZ,1635203337
426,Sayaxché,16.5167,-90.1667,301.96,80,15,0.72,GT,1635203338
427,Khovd,48.0056,91.6419,273.48,52,9,0.1,MN,1635203338
428,Torbay,47.6666,-52.7314,278.31,80,90,4.63,CA,1635203141
429,Farkhor,37.4922,69.4036,285.64,24,87,0.42,TJ,1635203339
430,General Pico,-35.6566,-63.7568,297.03,18,0,2.61,AR,1635203339
431,Pontes e Lacerda,-15.2261,-59.3353,299.65,54,100,1.29,BR,1635203340
432,Gamba,-2.65,10.0,297.65,91,100,4.26,GA,1635203341
433,Kasongo-Lunda,-6.4667,16.8167,293.81,99,90,0.67,CD,1635203341
434,Ibrā’,22.6906,58.5334,297.26,60,0,0.94,OM,1635203342
435,Smithers,54.7804,-127.1743,278.13,99,100,0.74,CA,1635203343
436,Turkmenabat,39.0733,63.5786,284.9,31,33,3.0,TM,1635203343
437,Kunming,25.0389,102.7183,287.48,90,100,1.87,CN,1635203344
438,Sargatskoye,55.6101,73.4972,280.66,72,100,6.48,RU,1635203344
439,Khandyga,62.6667,135.6,267.06,98,99,1.19,RU,1635203345
440,Vanimo,-2.6741,141.3028,300.92,76,38,2.36,PG,1635203345
441,Ingham,42.6,-84.3833,282.25,92,90,5.66,US,1635203345
442,Kaihua,23.3687,104.28,287.43,96,100,1.83,CN,1635203346
443,Kargala,56.6208,83.9607,275.9,88,100,2.12,RU,1635203346
444,Mutoko,-17.397,32.2268,291.44,71,1,3.58,ZW,1635203347
445,Provideniya,64.3833,-173.3,267.21,58,75,3.0,RU,1635203347
446,College,64.8569,-147.8028,272.36,91,90,0.0,US,1635203347
447,Petropavlovsk-Kamchatskiy,53.0452,158.6483,274.48,75,75,1.0,RU,1635203348
448,Inírida,3.8653,-67.9239,297.08,98,100,0.9,CO,1635203348
449,Pemangkat,1.1667,108.9667,298.93,87,54,2.82,ID,1635203349
450,Dongsheng,39.8161,109.9776,276.29,45,86,4.28,CN,1635203349
451,Stephenville,32.2207,-98.2023,304.22,51,1,2.57,US,1635203160
452,Porto Walter,-8.2686,-72.7439,295.61,79,100,1.61,BR,1635203350
453,Province of Mantua,45.1667,10.7833,284.1,85,93,0.38,IT,1635203350
454,Ryōtsu-minato,38.0833,138.4333,286.65,91,100,4.33,JP,1635203351
455,Piterka,50.6803,47.4454,273.8,71,59,3.23,RU,1635203351
456,Masvingo,-20.0637,30.8277,288.87,90,86,4.01,ZW,1635203351
457,Tres Picos,15.8667,-93.5333,301.53,82,54,1.74,MX,1635203352
458,Mayskiy,47.6931,40.1025,269.82,52,58,2.62,RU,1635203352
459,Padang,-0.9492,100.3543,297.18,87,91,1.36,ID,1635203353
460,Inhambane,-23.865,35.3833,295.41,80,39,2.94,MZ,1635203353
461,Ucluelet,48.9329,-125.5528,285.42,90,100,1.34,CA,1635203165
462,Venustiano Carranza,19.43,-99.0992,295.14,40,90,4.92,MX,1635203354
463,Itarema,-2.9248,-39.9167,299.9,73,2,7.74,BR,1635203354
464,Makkah al Mukarramah,21.4267,39.8261,299.27,62,1,1.1,SA,1635203354
465,Elbistan,38.2059,37.1983,278.74,59,77,1.49,TR,1635203355
466,Valdosta,30.8327,-83.2785,299.34,81,40,0.0,US,1635203354
467,Manta,-0.95,-80.7333,298.03,78,75,2.57,EC,1635203355
468,Okha,53.5739,142.9478,277.0,79,12,2.52,RU,1635203356
469,Ahmednagar,19.0833,74.7333,293.3,61,15,2.45,IN,1635203356
470,Port Moresby,-9.4431,147.1797,301.46,73,68,1.03,PG,1635203357
471,Kiryat Gat,31.61,34.7642,292.82,100,0,1.12,IL,1635203357
472,Papara,-3.9839,-38.7273,300.37,80,13,2.76,BR,1635203358
473,Bacolod City,10.6667,122.95,299.9,85,94,2.95,PH,1635203358
474,Ţahţā,26.7693,31.5021,293.94,49,0,3.55,EG,1635203359
475,Harper,4.375,-7.7169,298.62,80,100,4.04,LR,1635203359
476,Wanaka,-44.7,169.15,291.54,58,75,0.89,NZ,1635203359
477,San Jose,37.3394,-121.895,292.07,54,11,0.89,US,1635202704
478,Guéret,46.1667,1.8667,283.5,99,97,1.51,FR,1635203360
479,Sobolevo,54.4299,31.8996,274.26,73,81,4.87,RU,1635203360
480,Verkhoyansk,67.5447,133.385,251.02,100,76,0.77,RU,1635203069
481,Tadine,-21.55,167.8833,297.73,73,11,5.98,NC,1635203361
482,Ambatofinandrahana,-20.55,46.8,290.18,79,66,1.64,MG,1635203243
483,Äänekoski,62.6946,25.818,279.19,96,100,3.54,FI,1635203362
484,Killarney,52.05,-9.5167,284.1,89,100,3.01,IE,1635203362
485,Barraute,48.4335,-77.6328,275.26,83,53,2.57,CA,1635203363
486,Mpwapwa,-6.35,36.4833,292.63,76,68,2.44,TZ,1635203356
487,Igrim,63.1906,64.4162,270.38,76,91,2.93,RU,1635203363
488,Samfya,-11.3649,29.5565,296.91,37,42,2.93,ZM,1635203364
489,Sakakah,29.9697,40.2064,293.23,28,0,3.05,SA,1635203364
490,San Andrés,12.5847,-81.7006,302.16,79,20,3.6,CO,1635203194
491,Dharmavaram,14.4333,77.7167,295.85,71,25,1.92,IN,1635203365
492,Shirokiy,49.758,129.523,275.98,83,49,2.33,RU,1635203365
493,Matoury,4.8483,-52.3317,298.16,100,75,0.0,GF,1635203366
494,Bathsheba,13.2167,-59.5167,301.49,74,40,9.77,BB,1635203366
495,Pirapora,-17.345,-44.9419,298.32,73,100,2.47,BR,1635203366
496,Amapá,1.0,-52.0,300.79,65,86,2.7,BR,1635203367
497,Galle,6.0367,80.217,299.39,80,95,5.24,LK,1635203367
498,Nkhotakota,-12.9274,34.2961,299.05,56,19,2.57,MW,1635203289
499,Okmulgee,35.6234,-95.9605,289.55,67,1,4.63,US,1635203217
500,Bahir Dar,11.5936,37.3908,287.87,82,52,1.73,ET,1635203368
501,Fairbanks,64.8378,-147.7164,272.65,91,90,0.0,US,1635203241
502,Senador José Porfírio,-2.5908,-51.9542,299.9,77,72,1.96,BR,1635203368
503,Lebanon,36.2081,-86.2911,288.23,74,90,3.09,US,1635203369
504,Preobrazheniye,42.9019,133.9064,283.05,75,25,1.74,RU,1635203369
505,Dunedin,-45.8742,170.5036,288.04,77,100,3.13,NZ,1635203363
506,Meoqui,28.2833,-105.4833,306.45,13,0,3.21,MX,1635203370
507,Teacapan,22.55,-105.75,301.52,74,34,3.53,MX,1635203371
508,Houma,29.5958,-90.7195,303.15,68,1,2.57,US,1635203371
509,Xinmin,41.9908,122.8253,286.09,92,64,3.33,CN,1635203371
510,Diphu,25.8333,93.4333,291.82,96,9,0.41,IN,1635203372
511,Garden City,42.3256,-83.331,283.12,91,90,0.89,US,1635203372
512,Teknāf,20.8624,92.3058,297.24,87,98,1.54,BD,1635203373
513,Marawi,7.9986,124.2928,292.4,86,84,0.53,PH,1635203374
514,Whittlesea,-32.1759,26.8244,283.26,90,28,1.12,ZA,1635203374
515,Yaan,7.3833,8.5667,297.59,88,100,2.77,NG,1635203375
516,Batemans Bay,-35.7167,150.1833,292.7,45,4,1.59,AU,1635203375
517,Saint-Joseph,-21.3667,55.6167,294.36,80,30,5.38,RE,1635203376
518,Minnedosa,50.2453,-99.8436,279.05,64,99,7.63,CA,1635203376
519,Bandarbeyla,9.4942,50.8122,297.75,81,48,1.47,SO,1635203377
520,Balyqshy,47.0667,51.8667,273.15,80,0,5.0,KZ,1635203377
521,Adré,13.4667,22.2,298.1,22,62,4.74,TD,1635203378
522,Balabac,7.9868,117.0645,300.87,76,89,2.58,PH,1635203378
523,Aljezur,37.3191,-8.8033,288.09,78,58,4.18,PT,1635203379
524,Vila Franca do Campo,37.7167,-25.4333,293.38,79,25,2.46,PT,1635203379
525,Tiruchchendur,8.4833,78.1167,300.0,75,79,1.32,IN,1635203380
526,Antofagasta,-23.65,-70.4,288.75,68,0,0.86,CL,1635203163
527,Nuevitas,21.5453,-77.2644,300.84,80,87,2.47,CU,1635203380
528,Morehead,37.2711,-87.1764,286.01,80,90,1.34,US,1635203381
529,Youkounkoun,12.5333,-13.1333,297.8,88,100,1.36,GN,1635203381
530,Sur,22.5667,59.5289,299.83,66,0,3.33,OM,1635203382
531,Santa Cruz do Capibaribe,-7.9575,-36.2047,295.64,75,0,5.81,BR,1635203382
532,Kinsale,51.7075,-8.5306,284.39,93,75,2.57,IE,1635203383
533,Province of Trapani,37.8333,12.6667,291.25,88,18,2.78,IT,1635203384
534,Omboué,-1.5746,9.2618,297.7,90,100,4.11,GA,1635203384
535,Nāttarasankottai,9.8667,78.5667,298.88,80,96,1.74,IN,1635203384
536,Pyn U Lwin,22.0333,96.4667,289.58,93,37,1.1,MM,1635203385
537,Gold Coast,-28.0,153.4333,297.8,80,90,1.34,AU,1635203327
538,High Level,58.5169,-117.136,276.44,97,100,3.15,CA,1635203333
539,Hualmay,-11.0964,-77.6139,291.01,80,37,4.65,PE,1635203385
540,Parfen'yevo,58.484,43.4088,274.71,95,100,5.82,RU,1635203386
541,Takaka,-40.85,172.8,289.57,66,95,2.12,NZ,1635203122
542,Caçador,-26.7753,-51.015,287.02,84,0,0.87,BR,1635203088
543,Chateaubelair,13.2833,-61.25,299.98,74,100,7.89,VC,1635203387
544,Tirumullaivāsal,11.2333,79.8333,300.18,74,100,4.14,IN,1635203388
