City_ID,City,Lat,Lng,Max Temp,Humidity,Cloudiness,Wind Speed,Country,Date
0,Hutchinson,38.0608,-97.9298,298.05,67,1,0.45,US,1635012141
1,Hermanus,-34.4187,19.2345,287.54,70,62,3.64,ZA,1635012161
2,Honiara,-9.4333,159.95,297.81,83,21,1.48,SB,1635012163
3,Punta Arenas,-53.15,-70.9167,278.77,81,69,12.92,CL,1635012103
4,Rimbey,52.6334,-114.2353,278.06,97,100,2.02,CA,1635012164
5,Vaini,-21.2,-175.2,294.93,72,87,9.05,TO,1635012105
6,Yulara,-25.2406,130.9889,290.94,38,0,7.95,AU,1635012164
7,Upernavik,72.7868,-56.1549,266.19,80,79,2.66,GL,1635012165
8,Filingué,14.3521,3.3168,307.24,34,57,4.09,NE,1635012165
9,Saint Paul Harbor,57.79,-152.4072,279.88,76,90,5.66,US,1635012165
10,Kirsanov,52.6549,42.7224,282.77,66,93,5.14,RU,1635012165
11,Busselton,-33.65,115.3333,284.87,82,30,2.8,AU,1635012166
12,Harper,4.375,-7.7169,298.83,87,79,3.51,LR,1635012166
13,Macklin,52.3334,-109.9348,277.76,57,100,8.69,CA,1635012166
14,Baisha,26.5222,110.9311,284.98,89,73,0.79,CN,1635012167
15,George Town,5.4112,100.3354,300.31,88,40,3.13,MY,1635011906
16,Narsaq,60.9167,-46.05,276.27,78,90,1.54,GL,1635012167
17,Port Elizabeth,-33.918,25.5701,289.32,68,2,9.55,ZA,1635012015
18,Coyhaique,-45.5752,-72.0662,283.7,41,14,7.62,CL,1635012167
19,San Quintín,30.4833,-115.95,293.32,67,22,7.32,MX,1635012168
20,Ushuaia,-54.8,-68.3,276.96,81,75,6.17,AR,1635011875
21,Mataura,-46.1927,168.8643,282.79,97,100,0.44,NZ,1635012168
22,Bluff,-46.6,168.3333,284.32,89,100,1.78,NZ,1635012068
23,Mayor Pablo Lagerenza,-19.9309,-60.7718,315.87,20,1,9.85,PY,1635012168
24,Port Alfred,-33.5906,26.891,289.37,70,27,13.09,ZA,1635012169
25,Buala,-8.145,159.5921,299.39,76,26,2.12,SB,1635012169
26,Rikitea,-23.1203,-134.9692,296.88,82,72,8.69,PF,1635011891
27,Hobart,-42.8794,147.3294,284.27,93,90,0.89,AU,1635011885
28,Couëron,47.2151,-1.7217,284.12,73,0,2.57,FR,1635012170
29,Jiangyou,31.7667,104.7167,286.82,82,100,1.36,CN,1635012170
30,Avarua,-21.2078,-159.775,295.18,60,20,3.6,CK,1635012091
31,Palora,-1.7,-77.9333,298.77,76,70,1.12,EC,1635012170
32,Bonthe,7.5264,-12.505,300.16,79,55,3.78,SL,1635012171
33,Kapaa,22.0752,-159.319,299.14,90,20,0.45,US,1635012171
34,Felanitx,39.4696,3.1483,290.9,55,65,5.14,ES,1635012171
35,Port Lincoln,-34.7333,135.8667,284.93,78,4,4.48,AU,1635012014
36,Cabadiangan,9.7531,122.4739,297.52,90,99,2.3,PH,1635012172
37,Puerto Ayora,-0.7393,-90.3518,295.49,78,91,4.5,EC,1635012172
38,Nikolskoye,59.7035,30.7861,276.09,86,100,4.22,RU,1635012172
39,Ponta do Sol,32.6667,-17.1,295.77,65,26,1.61,PT,1635012172
40,Ahipara,-35.1667,173.1667,289.37,98,99,1.06,NZ,1635012173
41,Provideniya,64.3833,-173.3,267.9,78,100,3.92,RU,1635012173
42,Geraldton,-28.7667,114.6,286.38,94,0,2.57,AU,1635012173
43,Kuril'sk,45.2333,147.8833,280.08,66,65,6.11,RU,1635012174
44,Kattivākkam,13.2167,80.3167,302.2,78,79,3.12,IN,1635012174
45,Yellowknife,62.456,-114.3525,278.94,81,95,8.49,CA,1635012014
46,Atuona,-9.8,-139.0333,298.74,77,18,8.08,PF,1635011898
47,Korsakov,46.6328,142.7813,278.13,81,5,2.37,RU,1635012175
48,Cape Town,-33.9258,18.4232,289.87,64,55,0.89,ZA,1635012068
49,Maraã,-1.8333,-65.3667,305.2,56,33,0.86,BR,1635012175
50,Mahébourg,-20.4081,57.7,297.18,80,9,5.09,MU,1635012175
51,Kharhiāl,20.2833,82.7667,293.36,69,2,0.74,IN,1635012176
52,Pevek,69.7008,170.3133,262.09,94,100,3.53,RU,1635011915
53,Waipawa,-41.4122,175.5153,285.5,79,91,1.56,NZ,1635012176
54,Cascais,38.6979,-9.4215,295.79,52,0,3.09,PT,1635011920
55,Saint-Philippe,-21.3585,55.7679,296.92,81,81,5.56,RE,1635012177
56,Acapulco de Juárez,16.8634,-99.8901,298.14,92,100,5.68,MX,1635012049
57,Faanui,-16.4833,-151.75,298.69,73,97,1.26,PF,1635012177
58,Mar del Plata,-38.0023,-57.5575,287.52,86,80,4.02,AR,1635012007
59,Bredasdorp,-34.5322,20.0403,287.77,72,68,4.63,ZA,1635011901
60,Sungai Penuh,-2.0833,101.3833,291.45,95,89,0.71,ID,1635012177
61,San Cristobal,7.7669,-72.225,300.44,58,83,2.29,VE,1635012178
62,Ronneby,56.21,15.276,276.43,93,0,1.03,SE,1635012178
63,Wilmington,34.2257,-77.9447,298.71,65,16,1.34,US,1635011885
64,San Fernando,15.0286,120.6898,299.8,91,100,3.54,PH,1635012179
65,Atasū,48.6814,71.6433,278.74,50,7,6.0,KZ,1635012179
66,Benidorm,38.5382,-0.131,293.03,72,27,3.05,ES,1635012179
67,Kasongo-Lunda,-6.4667,16.8167,296.67,86,58,1.29,CD,1635012180
68,Port Hardy,50.6996,-127.4199,282.31,84,85,2.52,CA,1635012180
69,Albany,42.6001,-73.9662,285.75,58,63,0.45,US,1635012180
70,Olafsvik,64.8945,-23.7142,280.42,92,100,5.89,IS,1635012181
71,Laas,46.6166,10.7002,280.94,61,4,0.55,IT,1635012181
72,Gatton,-27.55,152.2833,293.9,68,99,2.81,AU,1635012182
73,Hirara,24.8,125.2833,297.71,62,93,6.89,JP,1635012182
74,Klaksvík,62.2266,-6.589,283.66,95,100,11.63,FO,1635012183
75,Guerrero Negro,27.9769,-114.0611,294.77,63,4,7.29,MX,1635012184
76,Zhigansk,66.7697,123.3711,267.56,95,100,8.18,RU,1635012184
77,Dingle,10.9995,122.6711,297.06,94,100,2.42,PH,1635012184
78,Leshukonskoye,64.8989,45.7622,268.14,93,31,2.07,RU,1635012185
79,Barrow,71.2906,-156.7887,270.41,91,100,7.38,US,1635011969
80,Hearst,49.6835,-83.6665,275.0,97,100,3.59,CA,1635012118
81,Butaritari,3.0707,172.7902,300.55,71,78,3.65,KI,1635011903
82,Thinadhoo,0.5333,72.9333,301.83,67,55,5.84,MV,1635012185
83,Ryl'sk,51.5655,34.6822,277.71,71,23,4.33,RU,1635012186
84,Kudahuvadhoo,2.6708,72.8944,301.4,72,22,6.42,MV,1635012186
85,Pisco,-13.7,-76.2167,293.16,76,8,3.43,PE,1635012186
86,Broome,42.2506,-75.833,283.5,75,90,0.45,US,1635012187
87,Portland,45.5234,-122.6762,285.14,94,100,0.89,US,1635011937
88,Alofi,-19.0595,-169.9187,296.78,65,32,8.67,NU,1635012187
89,Port Blair,11.6667,92.75,300.05,78,90,0.82,IN,1635012187
90,Beringovskiy,63.05,179.3167,261.38,77,25,4.64,RU,1635012188
91,Tasiilaq,65.6145,-37.6368,274.24,84,100,2.34,GL,1635012188
92,Bulawayo,-20.15,28.5833,298.91,37,78,2.2,ZW,1635012024
93,Shihezi,44.3,86.0333,279.19,64,96,0.4,CN,1635012188
94,Ostrovnoy,68.0531,39.5131,271.32,83,100,7.18,RU,1635012189
95,Bousso,10.4795,16.7117,302.74,39,19,1.99,TD,1635012189
96,Tura,25.5198,90.2201,292.24,87,0,1.32,IN,1635012190
97,Katsuura,35.1333,140.3,286.21,59,34,4.26,JP,1635012190
98,Fairbanks,64.8378,-147.7164,273.83,88,74,1.42,US,1635011948
99,Sioux Lookout,50.1001,-91.917,277.36,75,75,4.12,CA,1635012190
100,Severo-Kuril'sk,50.6789,156.125,277.16,80,73,4.33,RU,1635012191
101,Benguela,-12.5763,13.4055,296.93,74,64,2.42,AO,1635012191
102,Labuan,5.2767,115.2417,299.24,79,100,6.34,MY,1635012191
103,Strezhevoy,60.7333,77.5889,280.14,88,100,6.66,RU,1635012191
104,Arraial do Cabo,-22.9661,-42.0278,295.24,86,1,11.12,BR,1635012192
105,Esperance,-33.8667,121.9,284.82,68,10,7.88,AU,1635012111
106,Lagoa,39.05,-27.9833,292.37,71,1,6.06,PT,1635012192
107,Canandaigua,42.8742,-77.288,282.73,82,100,1.79,US,1635012028
108,Masakin,35.7292,10.5808,295.85,94,40,7.72,TN,1635012193
109,Priyutnoye,46.1011,43.5072,287.59,47,54,2.56,RU,1635012193
110,Ankara,39.9199,32.8543,284.66,38,0,0.89,TR,1635012193
111,Pachino,36.7186,15.0907,297.17,90,100,6.6,IT,1635012194
112,Torbay,47.6666,-52.7314,290.86,92,75,8.23,CA,1635012015
113,Mossamedes,-15.1961,12.1522,292.95,66,43,6.47,AO,1635012194
114,Cabo San Lucas,22.8909,-109.9124,304.6,64,3,2.84,MX,1635012002
115,Carnarvon,-24.8667,113.6333,294.81,74,0,7.5,AU,1635012195
116,Kutum,14.2,24.6667,300.75,19,18,7.07,SD,1635012195
117,Berlevåg,70.8578,29.0864,274.72,67,100,7.59,NO,1635012195
118,Bambous Virieux,-20.3428,57.7575,297.16,80,12,4.95,MU,1635012187
119,Soc Trang,9.6033,105.98,297.13,87,86,1.63,VN,1635012196
120,Souillac,-20.5167,57.5167,297.24,79,2,4.65,MU,1635012196
121,Ancud,-41.8697,-73.8203,283.65,57,20,4.84,CL,1635012105
122,Harbour Breton,47.4833,-55.7983,289.82,99,100,2.98,CA,1635012197
123,Mumford,5.2618,-0.759,299.23,83,90,4.53,GH,1635012197
124,Ndélé,8.4109,20.6473,293.82,91,88,0.92,CF,1635012197
125,Biankouma,7.7391,-7.6138,295.87,91,99,0.81,CI,1635012198
126,Korla,41.7597,86.1469,285.37,38,100,1.93,CN,1635012198
127,Luanda,-8.8368,13.2343,298.15,78,20,4.63,AO,1635012088
128,Cerna,45.0833,28.3167,285.92,72,97,1.92,RO,1635012199
129,Lebu,-37.6167,-73.65,286.12,65,70,4.14,CL,1635012067
130,Yangi Marg`ilon,40.4272,71.7189,279.83,56,1,4.12,UZ,1635012199
131,Newport,51.5877,-2.9984,286.17,71,100,7.67,GB,1635011999
132,Bukama,-9.2,25.85,296.01,78,62,5.32,CD,1635012199
133,Vanimo,-2.6741,141.3028,298.21,87,76,2.3,PG,1635012200
134,Gusau,12.1628,6.6614,299.17,65,100,0.93,NG,1635012200
135,Koumac,-20.5667,164.2833,294.71,87,7,4.13,NC,1635012200
136,Port Macquarie,-31.4333,152.9167,290.31,95,52,2.7,AU,1635012201
137,Airai,-8.9266,125.4092,289.53,86,55,0.88,TL,1635012184
138,Caranavi,-15.8167,-67.55,305.93,34,14,2.65,BO,1635012201
139,Srednekolymsk,67.45,153.6833,247.65,98,58,1.95,RU,1635012201
140,Dingcheng,32.1272,115.0394,285.87,67,96,2.37,CN,1635012202
141,Vila Franca do Campo,37.7167,-25.4333,294.38,74,46,2.89,PT,1635012202
142,Los Llanos de Aridane,28.6585,-17.9182,292.66,75,75,3.58,ES,1635012202
143,Bethel,41.3712,-73.414,288.19,61,86,2.56,US,1635011940
144,Jamestown,42.097,-79.2353,283.2,86,90,2.06,US,1635012203
145,Tuktoyaktuk,69.4541,-133.0374,271.15,93,90,5.14,CA,1635011944
146,Hamilton,39.1834,-84.5333,289.86,66,48,0.45,US,1635012042
147,Umluj,25.0213,37.2685,299.54,68,0,5.31,SA,1635012203
148,Kumul,42.8,93.45,283.26,39,100,1.66,CN,1635012204
149,Bathsheba,13.2167,-59.5167,302.1,66,47,8.44,BB,1635012204
150,Chui,-33.6971,-53.4616,289.57,72,100,2.58,UY,1635012204
151,Popondetta,-8.7537,148.2534,295.25,79,49,1.64,PG,1635012204
152,Perth,-31.9333,115.8333,288.16,89,13,0.51,AU,1635012205
153,Werda,-25.2667,23.2833,294.43,19,0,7.08,BW,1635012205
154,Codrington,-38.2667,141.9667,282.25,82,29,6.07,AU,1635012205
155,Diamantino,-14.4086,-56.4461,308.89,36,100,4.25,BR,1635012206
156,Saint-Louis,16.3333,-15.0,308.83,15,31,4.57,SN,1635012206
157,Herat Province,34.5,62.0,282.09,30,0,4.18,AF,1635012206
158,Abancay,-13.6339,-72.8814,299.93,33,26,3.64,PE,1635012207
159,Pingliang,35.5392,106.6861,279.48,90,38,0.87,CN,1635012207
160,Koyima,8.7,-11.0333,296.6,95,78,1.39,SL,1635012207
161,Leningradskiy,69.3833,178.4167,259.92,88,100,3.43,RU,1635012208
162,Kahului,20.8947,-156.47,298.69,91,55,4.02,US,1635012104
163,Sur,22.5667,59.5289,300.82,59,0,2.18,OM,1635012208
164,Abu Samrah,35.3029,37.1841,293.95,49,0,2.94,SY,1635012208
165,Chifeng,42.2683,118.9636,278.03,49,0,2.53,CN,1635012023
166,Lumphat,13.4878,106.9816,294.81,93,95,1.11,KH,1635012209
167,Gobabis,-22.45,18.9667,296.4,7,0,3.63,NA,1635012209
168,Naze,28.3667,129.4833,293.29,71,85,7.85,JP,1635012209
169,Kaitangata,-46.2817,169.8464,282.86,91,100,1.8,NZ,1635012210
170,Nelson Bay,-32.7167,152.15,292.01,97,42,6.14,AU,1635012210
171,Lorengau,-2.0226,147.2712,300.16,82,88,4.07,PG,1635012210
172,Kozhva,65.1073,57.0459,269.9,91,90,4.03,RU,1635012211
173,Warrnambool,-38.3833,142.4833,283.04,82,19,5.95,AU,1635011922
174,Churapcha,62.0025,132.4325,259.45,99,94,0.8,RU,1635012211
175,Dicabisagan,17.0818,122.4157,298.38,89,100,2.14,PH,1635012212
176,Hrodna,53.6884,23.8258,278.59,81,50,5.69,BY,1635012212
177,Kieta,-6.2167,155.6333,298.91,83,9,1.21,PG,1635012212
178,Dikson,73.5069,80.5464,260.95,87,100,5.25,RU,1635012213
179,Chanute,37.6792,-95.4572,294.88,78,40,5.14,US,1635012152
180,Hambantota,6.1241,81.1185,299.47,78,14,5.64,LK,1635012209
181,Boqueirão,-7.5,-36.1333,306.47,36,54,8.44,BR,1635012213
182,Husavik,66.0449,-17.3389,277.98,98,100,2.2,IS,1635012213
183,Ballitoville,-29.539,31.2144,294.4,76,18,14.21,ZA,1635012214
184,Bairiki Village,1.3292,172.9752,300.0,71,91,2.79,KI,1635012214
185,Morro Bay,35.3658,-120.8499,293.43,69,74,1.79,US,1635012101
186,Labuhan,-6.8844,112.2051,299.97,77,94,4.52,ID,1635012214
187,Calama,-22.4667,-68.9333,293.85,8,0,12.81,CL,1635012215
188,Polson,47.6936,-114.1632,284.47,60,85,4.47,US,1635012215
189,Dunedin,-45.8742,170.5036,285.26,83,100,1.79,NZ,1635012216
190,Aswān,24.0934,32.907,299.58,27,0,5.42,EG,1635012216
191,Clyde River,70.4692,-68.5914,268.48,78,97,7.71,CA,1635012216
192,Davila,18.4726,120.5763,299.77,83,96,8.26,PH,1635012217
193,Hokitika,-42.7167,170.9667,286.24,79,100,1.44,NZ,1635012217
194,Tinos,37.5375,25.1634,295.94,56,0,0.0,GR,1635012217
195,Departamento de Maldonado,-34.6667,-54.9167,288.83,81,100,4.95,UY,1635012086
196,Saint-Joseph,-21.3667,55.6167,296.36,81,78,2.82,RE,1635012218
197,East London,-33.0153,27.9116,290.83,58,45,10.73,ZA,1635012218
198,Cayenne,4.9333,-52.3333,300.42,84,90,0.45,GF,1635012218
199,San Ramon,37.7799,-121.978,290.7,77,90,0.89,US,1635011932
200,Noumea,-22.2763,166.4572,293.14,83,76,4.5,NC,1635012007
201,Laguna,38.421,-121.4238,290.99,77,75,1.79,US,1635012219
202,Port Augusta,-32.5,137.7667,279.1,72,1,4.29,AU,1635012219
203,Krasnaya Gora,52.9995,31.6023,279.98,61,87,5.98,RU,1635012219
204,Saskylakh,71.9167,114.0833,259.47,95,100,7.19,RU,1635012220
205,Fortuna,40.5982,-124.1573,287.58,82,90,2.24,US,1635012220
206,Ilek,51.5271,53.3831,284.11,74,100,3.2,RU,1635012220
207,Nizwá,22.9333,57.5333,300.92,34,6,1.71,OM,1635012221
208,Necochea,-38.5473,-58.7368,289.84,57,87,8.83,AR,1635012221
209,Rumoi,43.9344,141.6428,280.98,75,70,1.48,JP,1635012221
210,Touros,-5.1989,-35.4608,303.65,57,29,5.68,BR,1635012222
211,Coquimbo,-29.9533,-71.3436,289.73,66,0,5.27,CL,1635012036
212,Cap Malheureux,-19.9842,57.6142,297.3,74,3,2.68,MU,1635012222
213,Ribeira Grande,38.5167,-28.7,295.37,60,20,3.09,PT,1635012222
214,Rigaud,45.4793,-74.3024,282.54,61,100,2.69,CA,1635012223
215,Lompoc,34.6391,-120.4579,293.2,62,1,5.14,US,1635012181
216,Ducheng,23.2373,111.5317,288.19,80,42,0.79,CN,1635012223
217,Kenai,60.5544,-151.2583,278.79,87,100,4.14,US,1635012224
218,Greenwood,34.1668,-82.1165,296.01,56,1,2.06,US,1635012224
219,Warner Robins,32.621,-83.5999,297.13,40,1,0.89,US,1635011951
220,Arrondissement de Limoges,45.75,1.3333,283.46,66,0,3.6,FR,1635012006
221,Abu Dhabi,24.4667,54.3667,302.69,61,0,4.08,AE,1635012009
222,Slonim,53.0867,25.3219,278.39,84,75,5.2,BY,1635012225
223,Natal,-5.795,-35.2094,303.51,62,20,7.2,BR,1635012225
224,Gao,16.6362,1.637,306.22,27,94,1.48,ML,1635012225
225,Lavrentiya,65.5833,-171.0,268.84,85,100,4.34,RU,1635012161
226,Yar-Sale,66.8333,70.8333,272.5,89,100,4.63,RU,1635012226
227,Plettenberg Bay,-34.0527,23.3716,287.36,79,44,5.62,ZA,1635012226
228,Lima,-12.0432,-77.0282,292.67,40,34,0.45,PE,1635012146
229,Prince Rupert,54.3161,-130.3201,279.7,88,100,4.94,CA,1635012226
230,Khatanga,71.9667,102.5,261.1,92,100,7.78,RU,1635012227
231,Bereda,43.2686,-7.5406,286.01,75,100,1.01,ES,1635012227
232,Yarim,14.298,44.3779,286.75,30,83,4.08,YE,1635012227
233,Sitka,57.0531,-135.33,279.39,91,100,2.11,US,1635012101
234,Rocha,-34.4833,-54.3333,288.87,77,100,1.09,UY,1635012228
235,Durban,-29.8579,31.0292,294.83,78,22,7.15,ZA,1635012137
236,Yuzhne,46.6221,31.1013,285.27,64,78,3.47,UA,1635012228
237,Itoman,26.1247,127.6694,296.16,60,75,3.6,JP,1635012229
238,Isangel,-19.55,169.2667,297.13,87,87,5.08,VU,1635012229
239,Grand Gaube,-20.0064,57.6608,297.25,74,3,2.68,MU,1635012229
240,Coahuayana Viejo,18.7333,-103.6833,304.46,61,98,1.55,MX,1635012230
241,Campeche,19.0,-90.5,306.64,40,91,1.92,MX,1635012230
242,Hilo,19.7297,-155.09,296.07,96,90,2.57,US,1635011960
243,Half Moon Bay,37.4636,-122.4286,291.51,76,1,4.12,US,1635012015
244,Marawi,7.9986,124.2928,292.95,92,100,2.02,PH,1635012230
245,Vostok,46.4856,135.8833,271.42,90,0,2.72,RU,1635012231
246,Springdale,36.1867,-94.1288,299.0,68,75,5.36,US,1635012231
247,Thompson,55.7435,-97.8558,275.54,74,100,1.58,CA,1635012231
248,Whitehorse,60.7161,-135.0538,276.49,80,99,4.92,CA,1635012232
249,Khorixas,-20.3667,14.9667,296.07,15,0,5.43,NA,1635012232
250,College,64.8569,-147.8028,273.82,88,72,1.46,US,1635012110
251,Vestmannaeyjar,63.4427,-20.2734,281.7,93,75,4.12,IS,1635012232
252,Intipucá,13.1969,-88.0544,304.76,58,83,1.62,SV,1635012233
253,Bonavista,48.6499,-53.1147,285.03,99,100,4.95,CA,1635012219
254,Inuvik,68.3499,-133.7218,270.57,93,75,1.03,CA,1635012198
255,Talā,30.6803,30.9429,292.33,64,0,3.78,EG,1635012233
256,Les Cayes,18.2,-73.75,303.11,63,18,5.8,HT,1635012233
257,Inta,66.0317,60.1659,269.62,91,99,7.03,RU,1635012234
258,Cidreira,-30.1811,-50.2056,295.83,73,80,4.19,BR,1635012234
259,New Norfolk,-42.7826,147.0587,284.07,82,100,1.79,AU,1635012234
260,Baní,18.2833,-70.3333,304.68,60,30,5.75,DO,1635012235
261,Camacha,33.0833,-16.3333,293.57,64,40,5.14,PT,1635012235
262,Qiongshan,20.0058,110.3542,295.02,84,95,4.85,CN,1635012235
263,Nuuk,64.1835,-51.7216,271.49,54,75,4.63,GL,1635012236
264,Maniitsoq,65.4167,-52.9,270.01,50,72,3.29,GL,1635012236
265,Bengkulu,-3.8004,102.2655,297.47,90,61,1.66,ID,1635012193
266,Tefé,-3.3542,-64.7114,307.62,45,62,1.21,BR,1635012237
267,Ṭikāpur,28.5,81.1333,294.34,86,0,1.68,NP,1635012237
268,Maningrida,-12.0667,134.2667,300.43,78,51,2.83,AU,1635012237
269,Kilindoni,-7.9139,39.6668,299.02,75,14,6.88,TZ,1635012237
270,Kavieng,-2.5744,150.7967,300.98,76,72,6.44,PG,1635012238
271,Norman Wells,65.282,-126.8329,273.39,85,68,1.29,CA,1635012238
272,Taoudenni,22.6783,-3.9836,304.84,17,0,1.88,ML,1635012230
273,Handan,36.6006,114.4678,284.78,67,74,2.13,CN,1635012238
274,Iqaluit,63.7506,-68.5145,272.98,77,67,1.84,CA,1635012239
275,Salalah,17.0151,54.0924,298.69,67,12,1.58,OM,1635012113
276,Morón,-34.6534,-58.6198,295.34,60,79,5.19,AR,1635012161
277,Keetmanshoop,-26.5833,18.1333,288.0,53,46,7.8,NA,1635012239
278,Hofn,64.2539,-15.2082,280.36,92,100,4.01,IS,1635012240
279,Nanortalik,60.1432,-45.2371,275.52,73,35,2.1,GL,1635012240
280,Tonantins,-2.8731,-67.8022,307.99,41,39,1.15,BR,1635012240
281,Quatre Cocos,-20.2078,57.7625,297.09,80,14,4.7,MU,1635012241
282,Shetpe,44.1667,52.1167,285.73,18,1,4.57,KZ,1635011995
283,Tiksi,71.6872,128.8694,254.14,100,98,2.15,RU,1635012107
284,Kruisfontein,-34.0033,24.7314,288.09,69,6,8.0,ZA,1635012242
285,Faya,18.3851,42.4509,290.5,38,6,2.32,SA,1635012242
286,Mahibadhoo,3.7833,72.9667,301.37,72,45,6.39,MV,1635012243
287,Griffith,41.5284,-87.4237,286.98,50,1,0.89,US,1635012243
288,Jawor,51.0513,16.1935,280.98,79,26,4.32,PL,1635012136
289,Poum,-20.2333,164.0167,296.31,80,5,6.07,NC,1635012244
290,Karwar,14.8,74.1333,298.53,86,98,1.96,IN,1635012244
291,Mount Gambier,-37.8333,140.7667,281.92,88,37,3.5,AU,1635012244
292,Frome,51.2283,-2.3221,285.94,89,75,2.91,GB,1635012244
293,Kuandian,40.7286,124.7847,277.43,66,0,0.66,CN,1635012245
294,Jieshi,22.8134,115.8257,292.56,75,84,4.06,CN,1635012245
295,São Filipe,14.8961,-24.4956,300.14,66,1,2.8,CV,1635012245
296,Monterey,36.2505,-121.2516,288.21,1,76,1.33,US,1635012246
297,Kidal,18.4411,1.4078,307.98,14,58,3.28,ML,1635012246
298,Labé,11.3182,-12.2833,295.13,87,67,0.87,GN,1635012246
299,Chokurdakh,70.6333,147.9167,252.97,94,100,2.59,RU,1635012162
300,Tagusao,9.1924,117.8141,298.22,86,100,0.64,PH,1635012247
301,Saint Anthony,45.0205,-93.218,283.68,54,1,0.89,US,1635012247
302,Maroantsetra,-15.4333,49.7333,297.88,89,25,1.02,MG,1635012247
303,Gamba,-2.65,10.0,297.95,84,86,2.31,GA,1635012232
304,Iskateley,67.6803,53.1512,270.37,84,45,4.9,RU,1635012248
305,Kandrian,-6.2167,149.55,297.37,90,22,2.09,PG,1635012248
306,Zyryanskoye,56.8306,86.6258,276.91,96,100,8.95,RU,1635012248
307,Gizo Government Station,-8.103,156.8419,300.9,77,12,4.67,SB,1635012249
308,Masaki,33.7876,132.7112,285.09,71,3,0.45,JP,1635012249
309,Aasiaat,68.7098,-52.8699,265.16,95,100,2.91,GL,1635012249
310,Rehoboth,-23.3167,17.0833,294.22,11,0,4.98,NA,1635012250
311,Ilulissat,69.2167,-51.1,266.16,79,90,9.77,GL,1635012250
312,Castro,-24.7911,-50.0119,296.49,54,89,3.07,BR,1635012251
313,Hong Kong,22.2855,114.1577,294.4,79,69,0.45,HK,1635011722
314,Mbandaka,0.0487,18.2603,296.6,93,83,0.82,CD,1635012251
315,São Gabriel da Cachoeira,-0.1303,-67.0892,305.63,55,49,0.53,BR,1635012251
316,Lufilufi,-13.8745,-171.5986,298.03,71,100,7.61,WS,1635012252
317,Halkirk,52.2834,-112.1518,276.42,84,100,5.15,CA,1635012026
318,Kiryat Gat,31.61,34.7642,295.82,100,0,3.06,IL,1635012252
319,Araruama,-22.8728,-42.3431,298.16,74,0,7.98,BR,1635012022
320,Shepsi,44.0361,39.1489,289.17,74,20,1.63,RU,1635012252
321,Chicama,-7.8447,-79.1469,296.52,61,56,4.93,PE,1635012253
322,Cherskiy,68.75,161.3,251.67,100,100,1.03,RU,1635012160
323,‘Ewa Beach,21.3156,-158.0072,299.27,72,17,7.54,US,1635012227
324,Pochutla,15.7432,-96.4661,299.05,76,98,0.96,MX,1635012253
325,Arica,-18.475,-70.3042,292.39,66,22,4.26,CL,1635012157
326,Longyearbyen,78.2186,15.6401,267.06,79,75,2.06,SJ,1635012254
327,Shizuishan,39.2333,106.7694,282.54,48,0,2.18,CN,1635012254
328,Margate,51.3813,1.3862,286.1,74,59,0.45,GB,1635012254
329,Kalmunai,7.4167,81.8167,299.54,80,45,1.99,LK,1635012255
330,Diego de Almagro,-26.3667,-70.05,294.83,16,0,5.39,CL,1635012255
331,Williston,48.147,-103.618,282.38,64,82,4.02,US,1635012255
332,São Miguel do Araguaia,-13.275,-50.1628,305.74,42,58,3.27,BR,1635012030
333,Serebryanyy Bor,56.8,124.8,267.05,93,42,1.09,RU,1635012256
334,Palu,-0.8917,119.8707,297.06,96,97,1.21,ID,1635012256
335,Baharly,38.4362,57.4316,288.17,20,0,4.54,TM,1635012256
336,Fare,-16.7,-151.0167,297.81,80,100,3.48,PF,1635012257
337,Vanderhoof,54.0166,-124.0198,279.78,72,64,3.01,CA,1635012257
338,Tavda,58.0425,65.2726,279.01,71,54,5.53,RU,1635012257
339,Hithadhoo,-0.6,73.0833,301.11,74,94,5.42,MV,1635012212
340,San Miguel de Tucumán,-26.8241,-65.2226,303.52,21,66,6.24,AR,1635012017
341,Lubań,51.1201,15.2877,279.42,89,32,2.43,PL,1635012258
342,Cochrane,51.1834,-114.4687,278.82,77,90,5.14,CA,1635012034
343,Glazov,58.1394,52.6584,278.75,79,88,4.73,RU,1635012259
344,Pauini,-7.7136,-66.9764,310.01,34,73,2.25,BR,1635012259
345,Ürümqi,43.801,87.6005,275.68,87,0,1.0,CN,1635012123
346,Tulum,20.2167,-87.4667,304.25,69,90,2.93,MX,1635012259
347,Doha,25.2867,51.5333,301.14,54,0,4.63,QA,1635012002
348,Adrar,20.5022,-10.0711,301.28,18,50,0.4,MR,1635012100
349,Riohacha,11.5444,-72.9072,306.02,54,22,7.13,CO,1635012162
350,Cockburn Town,21.4612,-71.1419,303.13,62,75,4.63,TC,1635012260
351,Lüderitz,-26.6481,15.1594,288.75,71,11,9.42,NA,1635012168
352,Puerto Nariño,-3.7703,-70.3831,304.48,63,97,1.93,CO,1635012260
353,Pedernales,18.0384,-71.744,303.71,55,29,0.36,DO,1635012261
354,Inhambane,-23.865,35.3833,296.99,84,0,7.75,MZ,1635012261
355,Juneau,58.3019,-134.4197,280.84,96,100,2.03,US,1635012064
356,Bintulu,3.1667,113.0333,297.02,95,100,1.68,MY,1635012261
357,Goundam,16.4145,-3.6708,308.9,15,16,3.6,ML,1635012262
358,Nome,64.5011,-165.4064,271.02,83,100,2.3,US,1635011968
359,Praia,14.9215,-23.5087,302.45,51,0,7.2,CV,1635012262
360,Qaanaaq,77.484,-69.3632,254.6,57,0,3.55,GL,1635012259
361,Qaqortoq,60.7167,-46.0333,276.43,70,73,2.73,GL,1635012263
362,Huarmey,-10.0681,-78.1522,294.3,70,84,5.79,PE,1635012263
363,Mount Isa,-20.7333,139.5,295.02,73,74,0.0,AU,1635012217
364,Langarūd,37.197,50.1535,289.13,78,0,1.53,IR,1635012263
365,Kysyl-Syr,63.8986,122.7617,274.73,98,100,4.14,RU,1635012264
366,Ngunguru,-35.6167,174.5,289.91,97,100,9.07,NZ,1635012264
367,Salinas,36.6777,-121.6555,290.92,69,75,3.6,US,1635012264
368,Roald,62.5833,6.1333,281.67,61,75,3.6,NO,1635012265
369,Longford,53.7333,-7.8,286.07,93,100,8.27,IE,1635012266
370,Marystown,47.1666,-55.1483,289.74,100,100,0.89,CA,1635012266
371,Havøysund,70.9963,24.6622,273.64,56,100,8.62,NO,1635012266
372,Tual,-5.6667,132.75,301.84,76,80,5.29,ID,1635012266
373,Saint-François,46.4154,3.9054,279.84,81,0,1.03,FR,1635012267
374,Barra de Tecoanapa,16.5167,-98.75,297.21,95,100,2.89,MX,1635012267
375,Yining,29.0361,114.5636,284.75,84,79,0.06,CN,1635012268
376,Apomu,7.3333,4.1833,295.63,95,86,2.2,NG,1635012268
377,Urazovo,50.0836,38.0395,281.44,56,49,3.67,RU,1635012268
378,Tsaratanana,-16.7833,47.65,300.7,50,43,2.55,MG,1635012269
379,Pandan,14.0453,124.1694,299.34,86,100,3.91,PH,1635012269
380,Ola,59.5833,151.2833,269.11,71,98,5.03,RU,1635012270
381,Anchorage,61.2181,-149.9003,278.86,87,99,1.34,US,1635012215
382,Cortland,42.6001,-76.083,283.17,78,90,1.54,US,1635012129
383,Haines Junction,60.7522,-137.5108,273.72,92,100,0.14,CA,1635012243
384,Kazygurt,41.7589,69.3864,279.11,40,9,1.59,KZ,1635012271
385,Mwinilunga,-11.7358,24.4293,294.79,58,77,0.19,ZM,1635012271
386,Kuminskiy,58.6667,66.5667,278.86,74,45,6.46,RU,1635012271
387,Española,35.9911,-106.0806,294.59,19,55,3.48,US,1635012265
388,Talnakh,69.4865,88.3972,268.13,96,100,3.21,RU,1635012099
389,Hasaki,35.7333,140.8333,278.37,50,0,4.36,JP,1635012272
390,Umm Kaddadah,13.6017,26.6876,306.14,15,40,7.11,SD,1635012272
391,Aksha,50.2814,113.2867,274.22,61,6,1.32,RU,1635012273
392,Barre,44.197,-72.5021,284.53,53,1,4.12,US,1635012013
393,Vestmanna,62.1564,-7.1664,282.66,100,90,7.2,FO,1635012274
394,Lesnoy,57.6198,63.0784,278.82,75,32,3.9,RU,1635012274
395,Shumikha,55.2261,63.2961,280.53,83,16,6.09,RU,1635012274
396,Baruun-Urt,46.6806,113.2792,274.87,43,83,3.52,MN,1635012275
397,Sambava,-14.2667,50.1667,297.55,91,46,1.42,MG,1635012276
398,Kuah,6.3265,99.8432,299.22,85,100,4.05,MY,1635012276
399,Sol'-Iletsk,51.1631,54.9918,284.11,65,100,3.6,RU,1635012277
400,Sola,-13.8833,167.55,300.39,77,18,7.18,VU,1635012277
401,Shache,38.4167,77.2406,283.71,32,99,1.95,CN,1635012278
402,Paralímni,35.0375,33.9833,294.64,69,0,1.79,CY,1635012278
403,San Patricio,28.017,-97.5169,304.55,54,95,5.85,US,1635012278
404,Thunder Bay,48.4001,-89.3168,282.35,70,79,1.79,CA,1635012015
405,Empalme,27.9667,-110.8167,304.77,51,1,0.0,MX,1635012279
406,Siguiri,11.6667,-9.5,299.96,78,94,1.09,GN,1635012279
407,Pangnirtung,66.1451,-65.7125,270.59,94,100,0.88,CA,1635012180
408,Petropavlovsk-Kamchatskiy,53.0452,158.6483,273.51,79,94,1.27,RU,1635012280
409,Hūn,29.1268,15.9477,302.83,17,68,4.74,LY,1635012280
410,Port-Gentil,-0.7193,8.7815,298.86,80,98,4.21,GA,1635012280
411,La Ronge,55.1001,-105.2842,277.05,65,24,7.4,CA,1635012229
412,Kargopol',61.5071,38.9456,273.25,95,100,3.69,RU,1635012281
413,Kiunga,-6.1219,141.2906,295.97,95,92,0.97,PG,1635012281
414,Avera,33.194,-82.5271,296.53,40,0,2.07,US,1635012281
415,Halifax,44.6453,-63.5724,291.71,95,100,1.34,CA,1635011996
416,Vardø,70.3705,31.1107,273.89,78,99,7.28,NO,1635012282
417,Bokhan,53.153,103.7714,275.56,95,100,0.29,RU,1635012282
418,Marapanim,-0.7175,-47.6997,301.22,78,98,3.08,BR,1635012283
419,Chapais,49.7834,-74.8492,275.03,59,98,1.8,CA,1635012283
420,Cabañas,22.9758,-82.9219,303.46,63,100,2.66,CU,1635012283
421,Rāwah,34.4816,41.9093,296.62,25,73,2.37,IQ,1635012284
422,Biak,-0.9131,122.8766,297.57,79,98,1.58,ID,1635012284
423,Saint-Augustin,51.226,-58.6502,278.39,84,100,7.75,CA,1635012284
424,Antofagasta,-23.65,-70.4,290.2,67,20,4.82,CL,1635012285
425,Tessalit,20.1986,1.0114,307.19,13,22,2.91,ML,1635012269
426,Kismayo,-0.3582,42.5454,299.09,76,10,5.04,SO,1635012285
427,Saint-Ambroise,48.5501,-71.3324,279.03,58,97,1.99,CA,1635012285
428,Gushikawa,26.3544,127.8686,295.72,77,73,3.92,JP,1635012286
429,Bela,25.9333,81.9833,296.49,60,0,1.84,IN,1635012286
430,Honningsvåg,70.9821,25.9704,276.95,53,100,10.87,NO,1635012286
431,Bilma,18.6853,12.9164,304.3,13,5,3.82,NE,1635012287
432,Copiapó,-27.3667,-70.3333,296.89,24,1,4.66,CL,1635012287
433,Noshiro,40.2039,140.0242,285.04,70,100,3.37,JP,1635012287
434,Igarka,67.4667,86.5833,271.99,97,99,5.09,RU,1635012288
435,Perry,37.2506,-83.1999,292.54,41,3,2.73,US,1635012288
436,Chimbote,-9.0853,-78.5783,293.52,72,85,5.54,PE,1635012288
437,Sibolga,1.7427,98.7792,298.36,90,96,1.05,ID,1635012289
438,Santa Lucía,27.9117,-15.5407,291.91,69,75,10.8,ES,1635012289
439,Bilibino,68.0546,166.4372,252.41,100,100,0.3,RU,1635012289
440,Mwanza,-2.5167,32.9,298.2,63,54,4.42,TZ,1635012062
441,Waddān,29.1614,16.139,302.77,17,80,4.19,LY,1635012290
442,Bato,13.3528,123.3677,297.42,93,100,1.65,PH,1635012290
443,Cotonou,6.3654,2.4183,298.52,85,99,2.86,BJ,1635012014
444,Manta,-0.95,-80.7333,298.42,75,90,5.9,EC,1635012290
445,Pailón,-17.65,-62.75,314.04,21,31,9.66,BO,1635012291
446,Vao,-22.6667,167.4833,295.0,79,95,7.26,NC,1635012291
447,Northampton,40.8754,-75.2499,288.3,66,97,0.89,US,1635012291
448,Hudson Bay,52.85,-102.3842,278.32,56,29,5.24,CA,1635012292
449,Kabul,34.5,69.4167,282.23,22,0,1.08,AF,1635011787
450,Houma,29.5958,-90.7195,303.15,70,40,5.66,US,1635012114
451,Manavālakurichi,8.1333,77.3,300.2,85,50,3.26,IN,1635012292
452,Nazaré,-13.035,-39.0144,301.99,64,80,3.26,BR,1635012293
453,Broken Hill,-31.95,141.4333,283.41,61,0,6.49,AU,1635012293
454,Whitianga,-36.8333,175.7,287.05,94,100,6.87,NZ,1635012293
455,Padang,-0.9492,100.3543,298.21,90,75,1.4,ID,1635012028
456,Wakkanai,45.4094,141.6739,284.9,63,6,7.44,JP,1635012294
457,Macomer,40.262,8.7699,289.61,66,43,2.02,IT,1635012294
458,Stephenville,32.2207,-98.2023,302.2,58,1,5.66,US,1635012194
459,Talara,-4.5772,-81.2719,294.46,75,100,7.28,PE,1635012151
460,Teya,60.3778,92.6267,274.25,93,100,6.55,RU,1635012295
461,Distrikt Brokopondo,4.75,-55.1667,303.04,67,45,3.31,SR,1635012295
462,Talaya,61.3833,152.75,255.93,98,100,1.64,RU,1635012295
463,Luga,58.7372,29.8453,276.15,90,100,4.53,RU,1635012295
464,Lakota,5.8528,-5.6883,296.34,98,99,1.48,CI,1635012296
465,Maceió,-9.6658,-35.7353,304.84,62,0,7.72,BR,1635012093
466,Chilca,-12.5211,-76.7372,293.62,78,64,3.33,PE,1635012296
467,Jalu,29.0331,21.5482,298.26,30,1,3.97,LY,1635012296
468,Cam Ranh,11.9214,109.1591,299.13,83,40,2.57,VN,1635012297
469,Paamiut,61.994,-49.6678,273.29,50,26,10.64,GL,1635012297
470,Jutaí,-5.1833,-68.9,307.53,44,57,2.14,BR,1635012297
471,Ukiah,39.1502,-123.2078,286.83,92,90,1.54,US,1635012002
472,Storforshei,66.4043,14.5233,271.85,94,88,1.34,NO,1635012298
473,Lamar,33.6668,-95.5836,301.96,72,75,5.66,US,1635012298
474,San Rafael,-34.6177,-68.3301,296.92,14,6,5.08,AR,1635012088
475,Koungou,-12.7336,45.2042,298.99,83,0,2.06,YT,1635012299
476,Luancheng,37.8792,114.6517,283.68,69,42,0.99,CN,1635012299
477,Ballina,-28.8667,153.5667,290.17,94,7,3.27,AU,1635012299
478,Sabang,5.8933,95.3214,300.58,76,91,2.36,ID,1635012207
479,Comodoro Rivadavia,-45.8667,-67.5,291.07,14,20,10.29,AR,1635012300
480,Singapore,1.2897,103.8501,299.07,88,75,1.03,SG,1635012022
481,Morondava,-20.2833,44.2833,296.37,71,0,3.58,MG,1635012300
482,Zomba,-15.386,35.3188,300.41,33,71,0.38,MW,1635012300
483,Dukat,62.55,155.55,254.87,92,99,0.96,RU,1635012112
484,Pangai,-19.8,-174.35,296.21,60,20,6.17,TO,1635012301
485,Gladstone,-23.85,151.25,295.11,83,90,3.09,AU,1635012302
486,Borăscu,44.7,23.2833,285.82,49,100,4.29,RO,1635012302
487,Dhidhdhoo,6.8833,73.1,300.33,81,100,6.6,MV,1635012303
488,Lata,40.1629,-8.3327,290.4,52,99,1.33,PT,1635012304
489,Kirakira,-10.4544,161.9205,300.04,79,22,3.71,SB,1635012304
490,Kontagora,10.3999,5.4695,297.48,80,89,1.92,NG,1635012305
491,Mandera,3.9366,41.867,302.55,53,73,6.59,KE,1635012305
492,Bayanday,53.0661,105.5139,273.19,83,97,1.19,RU,1635012306
493,São Raimundo Nonato,-9.0153,-42.6994,301.28,67,93,0.45,BR,1635012306
494,Buraidah,26.326,43.975,300.56,15,0,3.07,SA,1635012307
495,Arrecife,28.963,-13.5477,296.19,60,75,7.2,ES,1635012307
496,Santa Isabel Rio Negro,-0.4139,-65.0192,306.9,49,27,0.81,BR,1635012307
497,Kavaratti,10.5669,72.642,300.81,77,69,1.76,IN,1635012308
498,Karratha,-20.7377,116.8463,299.98,41,68,4.01,AU,1635012308
499,Gravdal,68.1214,13.5031,277.16,48,81,1.97,NO,1635012308
500,Sawtell,-30.3833,153.1,292.7,95,0,2.57,AU,1635012309
501,Nambucca Heads,-30.65,153.0,292.69,91,18,2.02,AU,1635012309
502,Saulkrasti,57.2622,24.4147,279.12,77,100,7.17,LV,1635012309
503,Praia,14.9215,-23.5087,302.45,51,0,7.2,CV,1635012277
504,Caravelas,-17.7125,-39.2481,299.49,68,62,3.98,BR,1635012310
505,Gornopravdinsk,60.05,69.9,278.58,87,91,5.3,RU,1635012310
506,Linhares,-19.3911,-40.0722,299.19,70,86,3.55,BR,1635012010
507,Abilene,32.4487,-99.7331,302.42,53,1,8.75,US,1635012310
508,Oloron-Sainte-Marie,43.1944,-0.6107,285.39,69,0,1.5,FR,1635012311
509,Ugoofaaru,5.6667,73.0,300.72,77,34,7.01,MV,1635012311
510,Ullapool,57.8987,-5.1604,286.68,85,100,4.56,GB,1635012312
511,Flinders,-34.5833,150.8552,290.49,87,79,1.34,AU,1635012312
512,Umaria,23.5333,80.8333,292.78,64,0,1.37,IN,1635012312
513,Takoradze,4.8845,-1.7554,298.98,83,95,3.28,GH,1635012313
514,Pilar,-9.5972,-35.9567,304.11,57,87,5.86,BR,1635012208
515,La Macarena,2.1837,-73.7849,306.99,41,16,2.89,CO,1635012313
516,Mehamn,71.0357,27.8492,275.07,59,100,8.31,NO,1635012314
517,Itupiranga,-5.1347,-49.3267,304.33,66,98,1.78,BR,1635012314
518,Dalvik,65.9702,-18.5286,278.92,97,100,2.64,IS,1635012314
519,Kathmandu,27.7167,85.3167,291.27,94,75,1.03,NP,1635012314
520,Qūchān,37.106,58.5095,283.09,22,0,3.64,IR,1635012315
521,Montepuez,-13.1256,38.9997,298.03,52,28,4.6,MZ,1635012315
522,Rawdon,46.0501,-73.7159,281.46,51,98,1.92,CA,1635012315
523,La Santisima Trinidad,-14.8333,-64.9,314.4,24,30,5.48,BO,1635012245
524,Karasjok,69.4719,25.5112,271.21,81,93,2.96,NO,1635012316
525,Demba,-5.51,22.2667,297.38,65,62,1.27,CD,1635012316
526,Creel,27.75,-107.6333,291.29,27,0,5.93,MX,1635012317
527,Doba,8.65,16.85,297.68,78,46,2.07,TD,1635012317
528,Tazmalt,36.3868,4.3989,291.78,78,81,2.78,DZ,1635012317
529,Egvekinot,66.3167,-179.1667,260.31,80,100,3.27,RU,1635012318
